{
  "38601": { "lat": 34.4719, "lng": -89.4475, "city": "Abbeville" },
  "38602": { "lat": 34.6863, "lng": -90.1068, "city": "Arkabutla" },
  "38603": { "lat": 34.8346, "lng": -89.1427, "city": "Ashland" },
  "38606": { "lat": 34.3115, "lng": -89.9443, "city": "Batesville" },
  "38609": { "lat": 34.2351, "lng": -90.2927, "city": "Belen" },
  "38610": { "lat": 34.671, "lng": -89.0088, "city": "Blue Mountain" },
  "38611": { "lat": 34.8854, "lng": -89.6763, "city": "Byhalia" },
  "38614": { "lat": 34.256, "lng": -90.6348, "city": "Clarksdale" },
  "38617": { "lat": 34.3668, "lng": -90.5232, "city": "Coahoma" },
  "38618": { "lat": 34.6924, "lng": -89.9869, "city": "Coldwater" },
  "38619": { "lat": 34.5137, "lng": -89.9155, "city": "Como" },
  "38620": { "lat": 34.2596, "lng": -89.9396, "city": "Courtland" },
  "38621": { "lat": 34.4491, "lng": -90.1701, "city": "Crenshaw" },
  "38622": { "lat": 34.1731, "lng": -90.1364, "city": "Crowder" },
  "38623": { "lat": 34.359, "lng": -90.2743, "city": "Darling" },
  "38625": { "lat": 34.6491, "lng": -88.8072, "city": "Dumas" },
  "38626": { "lat": 34.5357, "lng": -90.3693, "city": "Dundee" },
  "38627": { "lat": 34.4352, "lng": -89.1767, "city": "Etta" },
  "38628": { "lat": 34.3932, "lng": -90.2565, "city": "Falcon" },
  "38629": { "lat": 34.8417, "lng": -88.9525, "city": "Falkner" },
  "38630": { "lat": 34.2643, "lng": -90.6723, "city": "Farrell" },
  "38631": { "lat": 34.3668, "lng": -90.6376, "city": "Friars Point" },
  "38632": { "lat": 34.8096, "lng": -90.0095, "city": "Hernando" },
  "38633": { "lat": 34.6244, "lng": -89.1862, "city": "Hickory Flat" },
  "38634": { "lat": 34.7676, "lng": -89.4487, "city": "Holly Springs" },
  "38635": { "lat": 34.7471, "lng": -89.4897, "city": "Holly Springs" },
  "38637": { "lat": 34.9519, "lng": -90.0507, "city": "Horn Lake" },
  "38638": { "lat": 34.6959, "lng": -89.8288, "city": "Independence" },
  "38639": { "lat": 34.3037, "lng": -90.4294, "city": "Jonestown" },
  "38641": { "lat": 34.8937, "lng": -90.1608, "city": "Lake Cormorant" },
  "38642": { "lat": 34.9271, "lng": -89.3163, "city": "Lamar" },
  "38643": { "lat": 34.1837, "lng": -90.263, "city": "Lambert" },
  "38644": { "lat": 34.4618, "lng": -90.4981, "city": "Lula" },
  "38645": { "lat": 34.2474, "lng": -90.4981, "city": "Lyon" },
  "38646": { "lat": 34.2607, "lng": -90.2816, "city": "Marks" },
  "38647": { "lat": 34.9608, "lng": -89.2267, "city": "Michigan City" },
  "38649": { "lat": 34.9536, "lng": -89.523, "city": "Mount Pleasant" },
  "38650": { "lat": 34.5402, "lng": -89.1157, "city": "Myrtle" },
  "38651": { "lat": 34.8992, "lng": -90.0122, "city": "Nesbit" },
  "38652": { "lat": 34.4851, "lng": -89.0031, "city": "New Albany" },
  "38654": { "lat": 34.9441, "lng": -89.8544, "city": "Olive Branch" },
  "38655": { "lat": 34.3308, "lng": -89.4835, "city": "Oxford" },
  "38658": { "lat": 34.1906, "lng": -90.0027, "city": "Pope" },
  "38659": { "lat": 34.6047, "lng": -89.3151, "city": "Potts Camp" },
  "38661": { "lat": 34.8937, "lng": -89.5649, "city": "Red Banks" },
  "38663": { "lat": 34.7509, "lng": -88.924, "city": "Ripley" },
  "38664": { "lat": 34.8093, "lng": -90.3052, "city": "Robinsonville" },
  "38665": { "lat": 34.591, "lng": -90.162, "city": "Sarah" },
  "38666": { "lat": 34.4276, "lng": -89.9221, "city": "Sardis" },
  "38668": { "lat": 34.6323, "lng": -89.8855, "city": "Senatobia" },
  "38669": { "lat": 34.1953, "lng": -90.7335, "city": "Sherard" },
  "38670": { "lat": 34.3823, "lng": -90.209, "city": "Sledge" },
  "38671": { "lat": 34.9771, "lng": -89.9992, "city": "Southaven" },
  "38672": { "lat": 34.9474, "lng": -89.9258, "city": "Southaven" },
  "38673": { "lat": 34.2849, "lng": -89.6273, "city": "Taylor" },
  "38674": { "lat": 34.9029, "lng": -88.9157, "city": "Tiplersville" },
  "38675": { "lat": 34.3582, "lng": -89.4839, "city": "Tula" },
  "38676": { "lat": 34.6884, "lng": -90.3685, "city": "Tunica" },
  "38677": { "lat": 34.3659, "lng": -89.5254, "city": "University" },
  "38679": { "lat": 34.8708, "lng": -89.6408, "city": "Victoria" },
  "38680": { "lat": 34.9641, "lng": -90.1208, "city": "Walls" },
  "38683": { "lat": 34.9527, "lng": -88.9053, "city": "Walnut" },
  "38685": { "lat": 34.5476, "lng": -89.6129, "city": "Waterford" },
  "38686": { "lat": 34.9582, "lng": -90.1526, "city": "Walls" },
  "38701": { "lat": 33.3787, "lng": -91.0468, "city": "Greenville" },
  "38702": { "lat": 33.4258, "lng": -90.9946, "city": "Greenville" },
  "38703": { "lat": 33.4085, "lng": -91.0228, "city": "Greenville" },
  "38704": { "lat": 33.2534, "lng": -90.9185, "city": "Greenville" },
  "38720": { "lat": 34.1294, "lng": -90.7382, "city": "Alligator" },
  "38721": { "lat": 32.9739, "lng": -90.8316, "city": "Anguilla" },
  "38722": { "lat": 33.2698, "lng": -90.8798, "city": "Arcola" },
  "38723": { "lat": 33.2301, "lng": -91.0473, "city": "Avon" },
  "38725": { "lat": 33.6448, "lng": -91.0338, "city": "Benoit" },
  "38726": { "lat": 33.788, "lng": -90.9795, "city": "Beulah" },
  "38730": { "lat": 33.6891, "lng": -90.7838, "city": "Boyle" },
  "38731": { "lat": 33.1007, "lng": -91.0979, "city": "Chatham" },
  "38732": { "lat": 33.743, "lng": -90.7309, "city": "Cleveland" },
  "38733": { "lat": 33.624, "lng": -90.8195, "city": "Cleveland" },
  "38736": { "lat": 33.63, "lng": -90.5264, "city": "Doddsville" },
  "38737": { "lat": 33.867, "lng": -90.5406, "city": "Drew" },
  "38738": { "lat": 33.9179, "lng": -90.4965, "city": "Parchman" },
  "38739": { "lat": 34.0604, "lng": -90.5011, "city": "Dublin" },
  "38740": { "lat": 34.047, "lng": -90.7652, "city": "Duncan" },
  "38744": { "lat": 33.0254, "lng": -91.0092, "city": "Glen Allan" },
  "38745": { "lat": 32.9775, "lng": -90.983, "city": "Grace" },
  "38746": { "lat": 33.9439, "lng": -90.9319, "city": "Gunnison" },
  "38748": { "lat": 33.149, "lng": -90.9041, "city": "Hollandale" },
  "38749": { "lat": 33.451, "lng": -90.6551, "city": "Indianola" },
  "38751": { "lat": 33.451, "lng": -90.6551, "city": "Indianola" },
  "38753": { "lat": 33.349, "lng": -90.6051, "city": "Inverness" },
  "38754": { "lat": 33.2471, "lng": -90.604, "city": "Isola" },
  "38756": { "lat": 33.3985, "lng": -90.8839, "city": "Leland" },
  "38759": { "lat": 33.8373, "lng": -90.7256, "city": "Merigold" },
  "38760": { "lat": 33.4546, "lng": -90.9943, "city": "Metcalfe" },
  "38761": { "lat": 33.4783, "lng": -90.5143, "city": "Moorhead" },
  "38762": { "lat": 33.886, "lng": -90.7302, "city": "Mound Bayou" },
  "38764": { "lat": 33.7915, "lng": -90.857, "city": "Pace" },
  "38765": { "lat": 33.0662, "lng": -90.8684, "city": "Panther Burn" },
  "38767": { "lat": 34.1412, "lng": -90.7865, "city": "Rena Lara" },
  "38768": { "lat": 33.9632, "lng": -90.4784, "city": "Rome" },
  "38769": { "lat": 33.8432, "lng": -90.9923, "city": "Rosedale" },
  "38771": { "lat": 33.7241, "lng": -90.5527, "city": "Ruleville" },
  "38772": { "lat": 33.5629, "lng": -91.0391, "city": "Scott" },
  "38773": { "lat": 33.6021, "lng": -90.7746, "city": "Shaw" },
  "38774": { "lat": 33.9491, "lng": -90.7625, "city": "Shelby" },
  "38776": { "lat": 33.4096, "lng": -90.9104, "city": "Stoneville" },
  "38778": { "lat": 33.5567, "lng": -90.5451, "city": "Sunflower" },
  "38780": { "lat": 33.269, "lng": -91.0337, "city": "Wayside" },
  "38781": { "lat": 33.9101, "lng": -90.7515, "city": "Winstonville" },
  "38782": { "lat": 33.5018, "lng": -91.0584, "city": "Winterville" },
  "38801": { "lat": 34.2538, "lng": -88.7209, "city": "Tupelo" },
  "38802": { "lat": 34.2345, "lng": -88.7671, "city": "Tupelo" },
  "38803": { "lat": 34.1876, "lng": -88.7785, "city": "Tupelo" },
  "38804": { "lat": 34.2823, "lng": -88.6715, "city": "Tupelo" },
  "38820": { "lat": 34.1715, "lng": -89.0328, "city": "Algoma" },
  "38821": { "lat": 33.9844, "lng": -88.4709, "city": "Amory" },
  "38824": { "lat": 34.528, "lng": -88.6375, "city": "Baldwyn" },
  "38825": { "lat": 33.8698, "lng": -88.4622, "city": "Becker" },
  "38826": { "lat": 34.3057, "lng": -88.8462, "city": "Belden" },
  "38827": { "lat": 34.5102, "lng": -88.2309, "city": "Belmont" },
  "38828": { "lat": 34.4273, "lng": -88.859, "city": "Blue Springs" },
  "38829": { "lat": 34.6694, "lng": -88.5443, "city": "Booneville" },
  "38833": { "lat": 34.8579, "lng": -88.307, "city": "Burnsville" },
  "38834": { "lat": 34.8759, "lng": -88.5916, "city": "Corinth" },
  "38835": { "lat": 34.9205, "lng": -88.5218, "city": "Corinth" },
  "38838": { "lat": 34.5497, "lng": -88.2117, "city": "Dennis" },
  "38839": { "lat": 33.8562, "lng": -89.3032, "city": "Derma" },
  "38841": { "lat": 34.3366, "lng": -89.0109, "city": "Ecru" },
  "38843": { "lat": 34.2745, "lng": -88.3793, "city": "Fulton" },
  "38844": { "lat": 33.8742, "lng": -88.2588, "city": "Gattman" },
  "38846": { "lat": 34.878, "lng": -88.4359, "city": "Glen" },
  "38847": { "lat": 34.4812, "lng": -88.1842, "city": "Golden" },
  "38848": { "lat": 33.8871, "lng": -88.3089, "city": "Greenwood Springs" },
  "38849": { "lat": 34.4563, "lng": -88.6975, "city": "Guntown" },
  "38850": { "lat": 34.0561, "lng": -89.0531, "city": "Houlka" },
  "38851": { "lat": 33.9026, "lng": -88.967, "city": "Houston" },
  "38852": { "lat": 34.8089, "lng": -88.1983, "city": "Iuka" },
  "38855": { "lat": 34.3243, "lng": -88.4912, "city": "Mantachie" },
  "38856": { "lat": 34.5011, "lng": -88.4498, "city": "Marietta" },
  "38857": { "lat": 34.2808, "lng": -88.595, "city": "Mooreville" },
  "38858": { "lat": 34.0821, "lng": -88.6052, "city": "Nettleton" },
  "38859": { "lat": 34.5315, "lng": -88.3875, "city": "New Site" },
  "38860": { "lat": 33.9694, "lng": -88.7638, "city": "Okolona" },
  "38862": { "lat": 34.2011, "lng": -88.6335, "city": "Plantersville" },
  "38863": { "lat": 34.217, "lng": -88.9868, "city": "Pontotoc" },
  "38864": { "lat": 34.1617, "lng": -89.1795, "city": "Randolph" },
  "38865": { "lat": 34.7968, "lng": -88.5795, "city": "Rienzi" },
  "38866": { "lat": 34.3831, "lng": -88.6674, "city": "Saltillo" },
  "38868": { "lat": 34.121, "lng": -88.7342, "city": "Shannon" },
  "38869": { "lat": 34.3575, "lng": -88.8351, "city": "Sherman" },
  "38870": { "lat": 34.0648, "lng": -88.39, "city": "Smithville" },
  "38871": { "lat": 34.3136, "lng": -89.1515, "city": "Thaxton" },
  "38873": { "lat": 34.6478, "lng": -88.2194, "city": "Tishomingo" },
  "38874": { "lat": 34.2265, "lng": -89.2519, "city": "Toccopola" },
  "38875": { "lat": 33.9068, "lng": -88.9554, "city": "Trebloc" },
  "38876": { "lat": 34.2335, "lng": -88.2392, "city": "Tremont" },
  "38877": { "lat": 33.9871, "lng": -88.8988, "city": "Van Vleet" },
  "38878": { "lat": 33.919, "lng": -89.1921, "city": "Vardaman" },
  "38879": { "lat": 34.1943, "lng": -88.7198, "city": "Verona" },
  "38880": { "lat": 34.6126, "lng": -88.5822, "city": "Wheeler" },
  "38901": { "lat": 33.7751, "lng": -89.8087, "city": "Grenada" },
  "38902": { "lat": 33.769, "lng": -89.8084, "city": "Grenada" },
  "38913": { "lat": 34.0949, "lng": -89.4154, "city": "Banner" },
  "38914": { "lat": 33.8514, "lng": -89.4378, "city": "Big Creek" },
  "38915": { "lat": 34.0066, "lng": -89.3484, "city": "Bruce" },
  "38916": { "lat": 33.8408, "lng": -89.3178, "city": "Calhoun City" },
  "38917": { "lat": 33.5208, "lng": -89.9506, "city": "Carrollton" },
  "38920": { "lat": 33.9079, "lng": -90.0362, "city": "Cascilla" },
  "38921": { "lat": 33.9726, "lng": -90.1116, "city": "Charleston" },
  "38922": { "lat": 33.9215, "lng": -89.6782, "city": "Coffeeville" },
  "38923": { "lat": 33.3731, "lng": -89.9915, "city": "Coila" },
  "38924": { "lat": 33.311, "lng": -90.2316, "city": "Cruger" },
  "38925": { "lat": 33.5632, "lng": -89.6419, "city": "Duck Hill" },
  "38926": { "lat": 33.6895, "lng": -89.7583, "city": "Elliott" },
  "38927": { "lat": 34.1263, "lng": -90.0044, "city": "Enid" },
  "38928": { "lat": 33.8573, "lng": -90.288, "city": "Glendora" },
  "38929": { "lat": 33.7245, "lng": -89.5754, "city": "Gore Springs" },
  "38930": { "lat": 33.5159, "lng": -90.1726, "city": "Greenwood" },
  "38935": { "lat": 33.5162, "lng": -90.1795, "city": "Greenwood" },
  "38940": { "lat": 33.7551, "lng": -90.0333, "city": "Holcomb" },
  "38941": { "lat": 33.4798, "lng": -90.3394, "city": "Itta Bena" },
  "38943": { "lat": 33.5864, "lng": -89.8513, "city": "Mc Carley" },
  "38944": { "lat": 33.7515, "lng": -90.3133, "city": "Minter City" },
  "38945": { "lat": 33.6507, "lng": -90.1969, "city": "Money" },
  "38946": { "lat": 33.3807, "lng": -90.3504, "city": "Morgan City" },
  "38947": { "lat": 33.5324, "lng": -89.9001, "city": "North Carrollton" },
  "38948": { "lat": 34.0756, "lng": -89.8877, "city": "Oakland" },
  "38949": { "lat": 34.1787, "lng": -89.4598, "city": "Paris" },
  "38950": { "lat": 33.7574, "lng": -90.2091, "city": "Philipp" },
  "38951": { "lat": 33.9443, "lng": -89.3376, "city": "Pittsboro" },
  "38952": { "lat": 33.6244, "lng": -90.362, "city": "Schlater" },
  "38953": { "lat": 33.9253, "lng": -89.891, "city": "Scobey" },
  "38954": { "lat": 33.4095, "lng": -90.1779, "city": "Sidon" },
  "38955": { "lat": 33.7439, "lng": -89.3753, "city": "Slate Spring" },
  "38957": { "lat": 33.9833, "lng": -90.3895, "city": "Sumner" },
  "38958": { "lat": 33.9292, "lng": -90.1885, "city": "Swan Lake" },
  "38959": { "lat": 33.3809, "lng": -90.3496, "city": "Swiftown" },
  "38960": { "lat": 33.7872, "lng": -89.8219, "city": "Tie Plant" },
  "38961": { "lat": 33.9852, "lng": -89.8945, "city": "Tillatoba" },
  "38962": { "lat": 33.9121, "lng": -90.1806, "city": "Tippo" },
  "38963": { "lat": 34.0148, "lng": -90.4318, "city": "Tutwiler" },
  "38964": { "lat": 34.0936, "lng": -90.3752, "city": "Vance" },
  "38965": { "lat": 34.1525, "lng": -89.638, "city": "Water Valley" },
  "38966": { "lat": 33.9473, "lng": -90.3443, "city": "Webb" },
  "38967": { "lat": 33.4858, "lng": -89.7277, "city": "Winona" },
  "39038": { "lat": 33.1842, "lng": -90.4924, "city": "Belzoni" },
  "39039": { "lat": 32.8158, "lng": -90.2815, "city": "Benton" },
  "39040": { "lat": 32.7, "lng": -90.3722, "city": "Bentonia" },
  "39041": { "lat": 32.3778, "lng": -90.4474, "city": "Bolton" },
  "39042": { "lat": 32.3038, "lng": -89.964, "city": "Brandon" },
  "39043": { "lat": 32.269, "lng": -89.9875, "city": "Brandon" },
  "39044": { "lat": 32.0016, "lng": -89.9672, "city": "Braxton" },
  "39045": { "lat": 32.7853, "lng": -89.8698, "city": "Camden" },
  "39046": { "lat": 32.6205, "lng": -90.0061, "city": "Canton" },
  "39047": { "lat": 32.3886, "lng": -89.9584, "city": "Brandon" },
  "39051": { "lat": 32.7852, "lng": -89.5241, "city": "Carthage" },
  "39054": { "lat": 32.806, "lng": -90.9268, "city": "Cary" },
  "39056": { "lat": 32.3411, "lng": -90.3229, "city": "Clinton" },
  "39057": { "lat": 32.467, "lng": -89.269, "city": "Conehatta" },
  "39058": { "lat": 32.3415, "lng": -90.3218, "city": "Clinton" },
  "39059": { "lat": 31.9933, "lng": -90.3744, "city": "Crystal Springs" },
  "39060": { "lat": 32.3113, "lng": -90.3972, "city": "Clinton" },
  "39061": { "lat": 33.074, "lng": -90.7951, "city": "Delta City" },
  "39062": { "lat": 31.9857, "lng": -89.9012, "city": "D Lo" },
  "39063": { "lat": 33.0828, "lng": -89.8612, "city": "Durant" },
  "39066": { "lat": 32.316, "lng": -90.5984, "city": "Edwards" },
  "39067": { "lat": 33.1204, "lng": -89.4659, "city": "Ethel" },
  "39069": { "lat": 31.7121, "lng": -91.0582, "city": "Fayette" },
  "39071": { "lat": 32.5578, "lng": -90.3235, "city": "Flora" },
  "39073": { "lat": 32.1535, "lng": -90.1312, "city": "Florence" },
  "39074": { "lat": 32.347, "lng": -89.4672, "city": "Forest" },
  "39077": { "lat": 31.9288, "lng": -90.3926, "city": "Gallman" },
  "39078": { "lat": 31.8552, "lng": -90.2127, "city": "Georgetown" },
  "39079": { "lat": 32.9892, "lng": -89.9433, "city": "Goodman" },
  "39080": { "lat": 32.4925, "lng": -89.4946, "city": "Harperville" },
  "39081": { "lat": 31.74, "lng": -91.0509, "city": "Harriston" },
  "39082": { "lat": 31.9676, "lng": -90.1054, "city": "Harrisville" },
  "39083": { "lat": 31.8562, "lng": -90.4051, "city": "Hazlehurst" },
  "39086": { "lat": 31.9564, "lng": -90.8446, "city": "Hermanville" },
  "39087": { "lat": 32.4706, "lng": -89.5171, "city": "Hillsboro" },
  "39088": { "lat": 32.8415, "lng": -90.7231, "city": "Holly Bluff" },
  "39090": { "lat": 33.0446, "lng": -89.5724, "city": "Kosciusko" },
  "39092": { "lat": 32.3459, "lng": -89.3414, "city": "Lake" },
  "39094": { "lat": 32.6446, "lng": -89.5494, "city": "Lena" },
  "39095": { "lat": 33.125, "lng": -90.0557, "city": "Lexington" },
  "39096": { "lat": 31.8383, "lng": -91.0957, "city": "Lorman" },
  "39097": { "lat": 32.9919, "lng": -90.5893, "city": "Louise" },
  "39098": { "lat": 32.566, "lng": -89.7135, "city": "Ludlow" },
  "39107": { "lat": 33.0828, "lng": -89.6412, "city": "Mc Adams" },
  "39108": { "lat": 33.1632, "lng": -89.3268, "city": "Mc Cool" },
  "39109": { "lat": 32.6909, "lng": -89.3554, "city": "Madden" },
  "39110": { "lat": 32.4671, "lng": -90.1087, "city": "Madison" },
  "39111": { "lat": 31.8495, "lng": -89.7503, "city": "Magee" },
  "39113": { "lat": 32.9013, "lng": -91.0286, "city": "Mayersville" },
  "39114": { "lat": 31.9494, "lng": -89.8095, "city": "Mendenhall" },
  "39115": { "lat": 33.0496, "lng": -90.5734, "city": "Midnight" },
  "39116": { "lat": 31.8473, "lng": -89.5741, "city": "Mize" },
  "39117": { "lat": 32.4029, "lng": -89.5949, "city": "Morton" },
  "39119": { "lat": 31.7613, "lng": -89.6551, "city": "Mount Olive" },
  "39120": { "lat": 31.5492, "lng": -91.3642, "city": "Natchez" },
  "39121": { "lat": 31.4706, "lng": -91.4044, "city": "Natchez" },
  "39122": { "lat": 31.5604, "lng": -91.4032, "city": "Natchez" },
  "39130": { "lat": 32.4618, "lng": -90.1154, "city": "Madison" },
  "39140": { "lat": 31.73, "lng": -90.0153, "city": "Newhebron" },
  "39144": { "lat": 31.851, "lng": -90.8283, "city": "Pattison" },
  "39145": { "lat": 32.318, "lng": -89.7913, "city": "Pelahatchie" },
  "39146": { "lat": 32.8905, "lng": -89.9737, "city": "Pickens" },
  "39148": { "lat": 32.0627, "lng": -89.9929, "city": "Piney Woods" },
  "39149": { "lat": 31.8277, "lng": -90.0088, "city": "Pinola" },
  "39150": { "lat": 31.961, "lng": -90.984, "city": "Port Gibson" },
  "39151": { "lat": 32.1062, "lng": -89.7836, "city": "Puckett" },
  "39152": { "lat": 32.2745, "lng": -89.5627, "city": "Pulaski" },
  "39153": { "lat": 32.0508, "lng": -89.5088, "city": "Raleigh" },
  "39154": { "lat": 32.1961, "lng": -90.4753, "city": "Raymond" },
  "39156": { "lat": 32.4867, "lng": -90.7859, "city": "Redwood" },
  "39157": { "lat": 32.4122, "lng": -90.1207, "city": "Ridgeland" },
  "39158": { "lat": 32.4285, "lng": -90.1323, "city": "Ridgeland" },
  "39159": { "lat": 32.8733, "lng": -90.8833, "city": "Rolling Fork" },
  "39160": { "lat": 33.001, "lng": -89.7552, "city": "Sallis" },
  "39161": { "lat": 32.4983, "lng": -89.8686, "city": "Sandhill" },
  "39162": { "lat": 32.6125, "lng": -90.5965, "city": "Satartia" },
  "39163": { "lat": 32.6424, "lng": -90.0907, "city": "Sharon" },
  "39165": { "lat": 31.4706, "lng": -91.4044, "city": "Sibley" },
  "39166": { "lat": 33.0507, "lng": -90.4928, "city": "Silver City" },
  "39167": { "lat": 32.094, "lng": -90.0462, "city": "Star" },
  "39168": { "lat": 31.8394, "lng": -89.4049, "city": "Taylorsville" },
  "39169": { "lat": 33.1624, "lng": -90.25, "city": "Tchula" },
  "39170": { "lat": 32.1147, "lng": -90.3241, "city": "Terry" },
  "39171": { "lat": 32.864, "lng": -89.6695, "city": "Thomastown" },
  "39173": { "lat": 32.7628, "lng": -90.3628, "city": "Tinsley" },
  "39174": { "lat": 32.3953, "lng": -90.1544, "city": "Tougaloo" },
  "39175": { "lat": 32.1229, "lng": -90.6047, "city": "Utica" },
  "39176": { "lat": 33.3343, "lng": -89.757, "city": "Vaiden" },
  "39177": { "lat": 32.6323, "lng": -90.8542, "city": "Valley Park" },
  "39179": { "lat": 32.8015, "lng": -90.0981, "city": "Vaughan" },
  "39180": { "lat": 32.3258, "lng": -90.8507, "city": "Vicksburg" },
  "39181": { "lat": 32.3486, "lng": -90.8642, "city": "Vicksburg" },
  "39182": { "lat": 32.3486, "lng": -90.8642, "city": "Vicksburg" },
  "39183": { "lat": 32.386, "lng": -90.84, "city": "Vicksburg" },
  "39189": { "lat": 32.6134, "lng": -89.4105, "city": "Walnut Grove" },
  "39190": { "lat": 31.5788, "lng": -91.2993, "city": "Washington" },
  "39191": { "lat": 31.6901, "lng": -90.4131, "city": "Wesson" },
  "39192": { "lat": 33.1883, "lng": -89.7695, "city": "West" },
  "39193": { "lat": 32.2348, "lng": -90.0726, "city": "Whitfield" },
  "39194": { "lat": 32.8594, "lng": -90.4031, "city": "Yazoo City" },
  "39201": { "lat": 32.2935, "lng": -90.1867, "city": "Jackson" },
  "39202": { "lat": 32.3149, "lng": -90.1782, "city": "Jackson" },
  "39203": { "lat": 32.3081, "lng": -90.2021, "city": "Jackson" },
  "39204": { "lat": 32.2832, "lng": -90.2306, "city": "Jackson" },
  "39205": { "lat": 32.2988, "lng": -90.1848, "city": "Jackson" },
  "39206": { "lat": 32.37, "lng": -90.1738, "city": "Jackson" },
  "39207": { "lat": 32.2988, "lng": -90.1848, "city": "Jackson" },
  "39208": { "lat": 32.2604, "lng": -90.0897, "city": "Pearl" },
  "39209": { "lat": 32.3184, "lng": -90.2446, "city": "Jackson" },
  "39210": { "lat": 32.3218, "lng": -90.1771, "city": "Jackson" },
  "39211": { "lat": 32.3739, "lng": -90.1293, "city": "Jackson" },
  "39212": { "lat": 32.2435, "lng": -90.2612, "city": "Jackson" },
  "39213": { "lat": 32.3553, "lng": -90.2171, "city": "Jackson" },
  "39215": { "lat": 32.2988, "lng": -90.1848, "city": "Jackson" },
  "39216": { "lat": 32.3386, "lng": -90.1708, "city": "Jackson" },
  "39217": { "lat": 32.2974, "lng": -90.2081, "city": "Jackson" },
  "39218": { "lat": 32.2287, "lng": -90.1591, "city": "Richland" },
  "39225": { "lat": 32.2988, "lng": -90.1848, "city": "Jackson" },
  "39232": { "lat": 32.3299, "lng": -90.0915, "city": "Flowood" },
  "39236": { "lat": 32.2988, "lng": -90.1848, "city": "Jackson" },
  "39250": { "lat": 32.2988, "lng": -90.1848, "city": "Jackson" },
  "39269": { "lat": 32.3003, "lng": -90.1886, "city": "Jackson" },
  "39271": { "lat": 32.2988, "lng": -90.1848, "city": "Jackson" },
  "39272": { "lat": 32.1888, "lng": -90.2595, "city": "Byram" },
  "39282": { "lat": 32.2988, "lng": -90.1848, "city": "Jackson" },
  "39283": { "lat": 32.2988, "lng": -90.1848, "city": "Jackson" },
  "39284": { "lat": 32.2988, "lng": -90.1848, "city": "Jackson" },
  "39286": { "lat": 32.2988, "lng": -90.1848, "city": "Jackson" },
  "39288": { "lat": 32.2746, "lng": -90.132, "city": "Pearl" },
  "39289": { "lat": 32.2988, "lng": -90.1848, "city": "Jackson" },
  "39296": { "lat": 32.2988, "lng": -90.1848, "city": "Jackson" },
  "39298": { "lat": 32.3199, "lng": -89.9923, "city": "Jackson" },
  "39301": { "lat": 32.3574, "lng": -88.656, "city": "Meridian" },
  "39302": { "lat": 32.3643, "lng": -88.7037, "city": "Meridian" },
  "39303": { "lat": 32.4012, "lng": -88.6523, "city": "Meridian" },
  "39304": { "lat": 32.4208, "lng": -88.646, "city": "Meridian" },
  "39305": { "lat": 32.4401, "lng": -88.6783, "city": "Meridian" },
  "39307": { "lat": 32.3736, "lng": -88.7436, "city": "Meridian" },
  "39309": { "lat": 32.5505, "lng": -88.6132, "city": "Meridian" },
  "39320": { "lat": 32.4676, "lng": -88.7228, "city": "Bailey" },
  "39322": { "lat": 31.5391, "lng": -88.5289, "city": "Buckatunna" },
  "39323": { "lat": 32.3505, "lng": -88.9551, "city": "Chunky" },
  "39324": { "lat": 31.5937, "lng": -88.7048, "city": "Clara" },
  "39325": { "lat": 32.5643, "lng": -88.875, "city": "Collinsville" },
  "39326": { "lat": 32.5511, "lng": -88.6609, "city": "Daleville" },
  "39327": { "lat": 32.4358, "lng": -89.1168, "city": "Decatur" },
  "39328": { "lat": 32.7162, "lng": -88.7332, "city": "De Kalb" },
  "39330": { "lat": 32.1563, "lng": -88.8474, "city": "Enterprise" },
  "39332": { "lat": 32.32, "lng": -89.0093, "city": "Hickory" },
  "39335": { "lat": 32.5022, "lng": -88.4956, "city": "Lauderdale" },
  "39336": { "lat": 32.2876, "lng": -89.2724, "city": "Lawrence" },
  "39337": { "lat": 32.5049, "lng": -88.9955, "city": "Little Rock" },
  "39338": { "lat": 32.0997, "lng": -89.2199, "city": "Louin" },
  "39339": { "lat": 33.1058, "lng": -89.0287, "city": "Louisville" },
  "39341": { "lat": 33.1027, "lng": -88.5781, "city": "Macon" },
  "39342": { "lat": 32.4245, "lng": -88.6483, "city": "Marion" },
  "39345": { "lat": 32.3244, "lng": -89.184, "city": "Newton" },
  "39346": { "lat": 32.9789, "lng": -89.1221, "city": "Noxapater" },
  "39347": { "lat": 32.0217, "lng": -88.8851, "city": "Pachuta" },
  "39348": { "lat": 32.0167, "lng": -89.0584, "city": "Paulding" },
  "39350": { "lat": 32.7572, "lng": -89.1154, "city": "Philadelphia" },
  "39352": { "lat": 32.6368, "lng": -88.4984, "city": "Porterville" },
  "39354": { "lat": 32.8826, "lng": -88.8289, "city": "Preston" },
  "39355": { "lat": 32.0668, "lng": -88.6788, "city": "Quitman" },
  "39356": { "lat": 32.1489, "lng": -89.0011, "city": "Rose Hill" },
  "39358": { "lat": 32.8402, "lng": -88.4883, "city": "Scooba" },
  "39359": { "lat": 32.5729, "lng": -89.3351, "city": "Sebastopol" },
  "39360": { "lat": 31.9607, "lng": -88.7168, "city": "Shubuta" },
  "39361": { "lat": 32.9769, "lng": -88.5594, "city": "Shuqualak" },
  "39362": { "lat": 31.3916, "lng": -88.5171, "city": "State Line" },
  "39363": { "lat": 32.1564, "lng": -88.7748, "city": "Stonewall" },
  "39364": { "lat": 32.4296, "lng": -88.4892, "city": "Toomsuba" },
  "39365": { "lat": 32.6439, "lng": -89.112, "city": "Union" },
  "39366": { "lat": 31.9506, "lng": -88.9707, "city": "Vossburg" },
  "39367": { "lat": 31.6754, "lng": -88.6782, "city": "Waynesboro" },
  "39401": { "lat": 31.3146, "lng": -89.3065, "city": "Hattiesburg" },
  "39402": { "lat": 31.3098, "lng": -89.3775, "city": "Hattiesburg" },
  "39403": { "lat": 31.3566, "lng": -89.3824, "city": "Hattiesburg" },
  "39404": { "lat": 31.1721, "lng": -89.2948, "city": "Hattiesburg" },
  "39406": { "lat": 31.1721, "lng": -89.2948, "city": "Hattiesburg" },
  "39407": { "lat": 31.1721, "lng": -89.2948, "city": "Hattiesburg" },
  "39421": { "lat": 31.5037, "lng": -89.7027, "city": "Bassfield" },
  "39422": { "lat": 31.9449, "lng": -89.2338, "city": "Bay Springs" },
  "39423": { "lat": 31.1693, "lng": -88.92, "city": "Beaumont" },
  "39425": { "lat": 31.0591, "lng": -89.0796, "city": "Brooklyn" },
  "39426": { "lat": 30.6178, "lng": -89.5779, "city": "Carriere" },
  "39427": { "lat": 31.4814, "lng": -89.8279, "city": "Carson" },
  "39428": { "lat": 31.6707, "lng": -89.5438, "city": "Collins" },
  "39429": { "lat": 31.2559, "lng": -89.7998, "city": "Columbia" },
  "39436": { "lat": 31.4555, "lng": -89.302, "city": "Eastabuchie" },
  "39437": { "lat": 31.5797, "lng": -89.2231, "city": "Ellisville" },
  "39439": { "lat": 31.882, "lng": -88.9981, "city": "Heidelberg" },
  "39440": { "lat": 31.7054, "lng": -89.1312, "city": "Laurel" },
  "39441": { "lat": 31.7277, "lng": -89.0755, "city": "Laurel" },
  "39442": { "lat": 31.6823, "lng": -89.0406, "city": "Laurel" },
  "39443": { "lat": 31.7138, "lng": -89.0759, "city": "Laurel" },
  "39451": { "lat": 31.1238, "lng": -88.5595, "city": "Leakesville" },
  "39452": { "lat": 30.8668, "lng": -88.649, "city": "Lucedale" },
  "39455": { "lat": 31.0013, "lng": -89.4523, "city": "Lumberton" },
  "39456": { "lat": 31.0867, "lng": -88.7977, "city": "Mc Lain" },
  "39457": { "lat": 30.6669, "lng": -89.6734, "city": "Mc Neill" },
  "39459": { "lat": 31.4836, "lng": -89.3206, "city": "Moselle" },
  "39460": { "lat": 31.8152, "lng": -89.1778, "city": "Moss" },
  "39461": { "lat": 31.1793, "lng": -88.7198, "city": "Neely" },
  "39462": { "lat": 31.2026, "lng": -89.0367, "city": "New Augusta" },
  "39463": { "lat": 30.5637, "lng": -89.5578, "city": "Nicholson" },
  "39464": { "lat": 31.4738, "lng": -89.0396, "city": "Ovett" },
  "39465": { "lat": 31.3472, "lng": -89.2222, "city": "Petal" },
  "39466": { "lat": 30.5418, "lng": -89.691, "city": "Picayune" },
  "39470": { "lat": 30.8524, "lng": -89.5648, "city": "Poplarville" },
  "39474": { "lat": 31.6057, "lng": -89.8735, "city": "Prentiss" },
  "39475": { "lat": 31.1496, "lng": -89.4623, "city": "Purvis" },
  "39476": { "lat": 31.3434, "lng": -88.9101, "city": "Richton" },
  "39477": { "lat": 31.7909, "lng": -89.0414, "city": "Sandersville" },
  "39478": { "lat": 31.0479, "lng": -89.8183, "city": "Sandy Hook" },
  "39479": { "lat": 31.5285, "lng": -89.4816, "city": "Seminary" },
  "39480": { "lat": 31.7594, "lng": -89.3082, "city": "Soso" },
  "39481": { "lat": 31.8447, "lng": -89.2621, "city": "Stringer" },
  "39482": { "lat": 31.36, "lng": -89.5777, "city": "Sumrall" },
  "39483": { "lat": 31.2473, "lng": -89.9311, "city": "Foxworth" },
  "39501": { "lat": 30.3826, "lng": -89.0976, "city": "Gulfport" },
  "39502": { "lat": 30.4158, "lng": -89.0684, "city": "Gulfport" },
  "39503": { "lat": 30.4601, "lng": -89.0886, "city": "Gulfport" },
  "39505": { "lat": 30.4158, "lng": -89.0684, "city": "Gulfport" },
  "39506": { "lat": 30.4158, "lng": -89.0684, "city": "Gulfport" },
  "39507": { "lat": 30.3962, "lng": -89.0353, "city": "Gulfport" },
  "39520": { "lat": 30.2956, "lng": -89.4632, "city": "Bay Saint Louis" },
  "39521": { "lat": 30.4032, "lng": -89.4982, "city": "Bay Saint Louis" },
  "39522": { "lat": 30.4032, "lng": -89.4982, "city": "Stennis Space Center" },
  "39525": { "lat": 30.3728, "lng": -89.3779, "city": "Diamondhead" },
  "39529": { "lat": 30.4032, "lng": -89.4982, "city": "Stennis Space Center" },
  "39530": { "lat": 30.4035, "lng": -88.8971, "city": "Biloxi" },
  "39531": { "lat": 30.4033, "lng": -88.9605, "city": "Biloxi" },
  "39532": { "lat": 30.511, "lng": -88.9681, "city": "Biloxi" },
  "39533": { "lat": 30.396, "lng": -88.8853, "city": "Biloxi" },
  "39534": { "lat": 30.4067, "lng": -88.9211, "city": "Biloxi" },
  "39535": { "lat": 30.4158, "lng": -89.0684, "city": "Biloxi" },
  "39540": { "lat": 30.4383, "lng": -88.8989, "city": "Diberville" },
  "39552": { "lat": 30.4411, "lng": -88.6345, "city": "Escatawpa" },
  "39553": { "lat": 30.398, "lng": -88.6412, "city": "Gautier" },
  "39555": { "lat": 30.7132, "lng": -88.5197, "city": "Hurley" },
  "39556": { "lat": 30.4875, "lng": -89.4187, "city": "Kiln" },
  "39558": { "lat": 30.2391, "lng": -89.4595, "city": "Lakeshore" },
  "39560": { "lat": 30.3598, "lng": -89.1646, "city": "Long Beach" },
  "39561": { "lat": 30.6975, "lng": -89.1536, "city": "Mc Henry" },
  "39562": { "lat": 30.5471, "lng": -88.4927, "city": "Moss Point" },
  "39563": { "lat": 30.425, "lng": -88.5233, "city": "Moss Point" },
  "39564": { "lat": 30.4404, "lng": -88.7801, "city": "Ocean Springs" },
  "39565": { "lat": 30.5405, "lng": -88.6875, "city": "Vancleave" },
  "39566": { "lat": 30.4113, "lng": -88.8278, "city": "Ocean Springs" },
  "39567": { "lat": 30.3658, "lng": -88.5561, "city": "Pascagoula" },
  "39568": { "lat": 30.4411, "lng": -88.6345, "city": "Pascagoula" },
  "39569": { "lat": 30.3658, "lng": -88.5561, "city": "Pascagoula" },
  "39571": { "lat": 30.3989, "lng": -89.2843, "city": "Pass Christian" },
  "39572": { "lat": 30.2508, "lng": -89.6011, "city": "Pearlington" },
  "39573": { "lat": 30.7669, "lng": -89.14, "city": "Perkinston" },
  "39574": { "lat": 30.5961, "lng": -89.1477, "city": "Saucier" },
  "39576": { "lat": 30.2914, "lng": -89.3837, "city": "Waveland" },
  "39577": { "lat": 30.8609, "lng": -89.1324, "city": "Wiggins" },
  "39581": { "lat": 30.3664, "lng": -88.5289, "city": "Pascagoula" },
  "39595": { "lat": 30.3658, "lng": -88.5561, "city": "Pascagoula" },
  "39601": { "lat": 31.5858, "lng": -90.452, "city": "Brookhaven" },
  "39602": { "lat": 31.5334, "lng": -90.4907, "city": "Brookhaven" },
  "39603": { "lat": 31.6123, "lng": -90.4467, "city": "Brookhaven" },
  "39629": { "lat": 31.4563, "lng": -90.4732, "city": "Bogue Chitto" },
  "39630": { "lat": 31.4593, "lng": -90.8457, "city": "Bude" },
  "39631": { "lat": 31.0893, "lng": -91.096, "city": "Centreville" },
  "39632": { "lat": 31.1145, "lng": -90.4875, "city": "Chatawa" },
  "39633": { "lat": 31.291, "lng": -91.1849, "city": "Crosby" },
  "39635": { "lat": 31.1855, "lng": -90.449, "city": "Fernwood" },
  "39638": { "lat": 31.1903, "lng": -90.924, "city": "Gloster" },
  "39641": { "lat": 31.4036, "lng": -90.1864, "city": "Jayess" },
  "39643": { "lat": 31.244, "lng": -90.0194, "city": "Kokomo" },
  "39645": { "lat": 31.1384, "lng": -90.7133, "city": "Liberty" },
  "39647": { "lat": 31.4908, "lng": -90.7836, "city": "Mc Call Creek" },
  "39648": { "lat": 31.1769, "lng": -90.4016, "city": "Mccomb" },
  "39649": { "lat": 31.2438, "lng": -90.4532, "city": "Mccomb" },
  "39652": { "lat": 31.1217, "lng": -90.4831, "city": "Magnolia" },
  "39653": { "lat": 31.4285, "lng": -90.8578, "city": "Meadville" },
  "39654": { "lat": 31.5238, "lng": -90.128, "city": "Monticello" },
  "39656": { "lat": 31.442, "lng": -89.9827, "city": "Oak Vale" },
  "39657": { "lat": 31.0217, "lng": -90.479, "city": "Osyka" },
  "39661": { "lat": 31.504, "lng": -91.0625, "city": "Roxie" },
  "39662": { "lat": 31.3795, "lng": -90.2867, "city": "Ruth" },
  "39663": { "lat": 31.5755, "lng": -90.0173, "city": "Silver Creek" },
  "39664": { "lat": 31.3672, "lng": -90.6752, "city": "Smithdale" },
  "39665": { "lat": 31.6524, "lng": -90.2043, "city": "Sontag" },
  "39666": { "lat": 31.2975, "lng": -90.4654, "city": "Summit" },
  "39667": { "lat": 31.1466, "lng": -90.1169, "city": "Tylertown" },
  "39668": { "lat": 31.7105, "lng": -90.8259, "city": "Union Church" },
  "39669": { "lat": 31.1459, "lng": -91.3076, "city": "Woodville" },
  "39701": { "lat": 33.4109, "lng": -88.5047, "city": "Columbus" },
  "39702": { "lat": 33.4812, "lng": -88.3554, "city": "Columbus" },
  "39703": { "lat": 33.4841, "lng": -88.284, "city": "Columbus" },
  "39704": { "lat": 33.5485, "lng": -88.3796, "city": "Columbus" },
  "39705": { "lat": 33.5508, "lng": -88.4865, "city": "Columbus" },
  "39710": { "lat": 33.5163, "lng": -88.4601, "city": "Columbus" },
  "39730": { "lat": 33.8284, "lng": -88.538, "city": "Aberdeen" },
  "39735": { "lat": 33.3517, "lng": -89.2014, "city": "Ackerman" },
  "39736": { "lat": 33.4115, "lng": -88.6443, "city": "Artesia" },
  "39737": { "lat": 33.6487, "lng": -89.3101, "city": "Bellefontaine" },
  "39739": { "lat": 33.2346, "lng": -88.5823, "city": "Brooksville" },
  "39740": { "lat": 33.6865, "lng": -88.3145, "city": "Caledonia" },
  "39741": { "lat": 33.6162, "lng": -88.8267, "city": "Cedarbluff" },
  "39743": { "lat": 33.3219, "lng": -88.5671, "city": "Crawford" },
  "39744": { "lat": 33.5494, "lng": -89.2904, "city": "Eupora" },
  "39745": { "lat": 33.2898, "lng": -89.3999, "city": "French Camp" },
  "39746": { "lat": 33.7404, "lng": -88.4112, "city": "Hamilton" },
  "39747": { "lat": 33.4165, "lng": -89.5696, "city": "Kilmichael" },
  "39750": { "lat": 33.5686, "lng": -89.0605, "city": "Maben" },
  "39751": { "lat": 33.7052, "lng": -89.1051, "city": "Mantee" },
  "39752": { "lat": 33.5415, "lng": -89.1275, "city": "Mathiston" },
  "39753": { "lat": 33.4838, "lng": -88.6409, "city": "Mayhew" },
  "39754": { "lat": 33.7179, "lng": -88.9478, "city": "Montpelier" },
  "39755": { "lat": 33.5961, "lng": -88.9518, "city": "Pheba" },
  "39756": { "lat": 33.7836, "lng": -88.6642, "city": "Prairie" },
  "39759": { "lat": 33.4505, "lng": -88.8196, "city": "Starkville" },
  "39760": { "lat": 33.4599, "lng": -88.8322, "city": "Starkville" },
  "39762": { "lat": 33.4156, "lng": -88.7433, "city": "Mississippi State" },
  "39766": { "lat": 33.5671, "lng": -88.3278, "city": "Steens" },
  "39767": { "lat": 33.5101, "lng": -89.479, "city": "Stewart" },
  "39769": { "lat": 33.357, "lng": -89.0473, "city": "Sturgis" },
  "39771": { "lat": 33.607, "lng": -89.2752, "city": "Walthall" },
  "39772": { "lat": 33.2645, "lng": -89.2804, "city": "Weir" },
  "39773": { "lat": 33.6076, "lng": -88.6503, "city": "West Point" },
  "39776": { "lat": 33.8066, "lng": -89.0256, "city": "Woodland" }
}
