{
  "24701": {
    "lat": 37.2698,
    "lng": -81.2223,
    "city": "Bluefield"
  },
  "24712": {
    "lat": 37.4323,
    "lng": -80.9974,
    "city": "Athens"
  },
  "24714": {
    "lat": 37.4909,
    "lng": -81.2062,
    "city": "Beeson"
  },
  "24715": {
    "lat": 37.3321,
    "lng": -81.3256,
    "city": "Bramwell"
  },
  "24716": {
    "lat": 37.5376,
    "lng": -81.3793,
    "city": "Bud"
  },
  "24719": {
    "lat": 37.4909,
    "lng": -81.3226,
    "city": "Covel"
  },
  "24724": {
    "lat": 37.3309,
    "lng": -81.2998,
    "city": "Freeman"
  },
  "24726": {
    "lat": 37.5054,
    "lng": -81.3404,
    "city": "Herndon"
  },
  "24729": {
    "lat": 37.4401,
    "lng": -81.244,
    "city": "Hiawatha"
  },
  "24731": {
    "lat": 37.3971,
    "lng": -81.1318,
    "city": "Kegley"
  },
  "24732": {
    "lat": 37.3448,
    "lng": -80.9279,
    "city": "Kellysville"
  },
  "24733": {
    "lat": 37.442,
    "lng": -81.2138,
    "city": "Lashmeet"
  },
  "24736": {
    "lat": 37.4201,
    "lng": -81.2432,
    "city": "Matoaka"
  },
  "24737": {
    "lat": 37.3539,
    "lng": -81.2518,
    "city": "Montcalm"
  },
  "24738": {
    "lat": 37.3015,
    "lng": -81.3043,
    "city": "Nemours"
  },
  "24739": {
    "lat": 37.3662,
    "lng": -81.1026,
    "city": "Princeton"
  },
  "24740": {
    "lat": 37.3799,
    "lng": -81.1175,
    "city": "Princeton"
  },
  "24747": {
    "lat": 37.4142,
    "lng": -81.1784,
    "city": "Rock"
  },
  "24751": {
    "lat": 37.3073,
    "lng": -81.3287,
    "city": "Wolfe"
  },
  "24801": {
    "lat": 37.4329,
    "lng": -81.5846,
    "city": "Welch"
  },
  "24808": {
    "lat": 37.3362,
    "lng": -81.4151,
    "city": "Anawalt"
  },
  "24811": {
    "lat": 37.4126,
    "lng": -81.7843,
    "city": "Avondale"
  },
  "24813": {
    "lat": 37.3407,
    "lng": -81.7376,
    "city": "Bartley"
  },
  "24815": {
    "lat": 37.2687,
    "lng": -81.6668,
    "city": "Berwind"
  },
  "24816": {
    "lat": 37.4643,
    "lng": -81.6982,
    "city": "Big Sandy"
  },
  "24817": {
    "lat": 37.3518,
    "lng": -81.7987,
    "city": "Bradshaw"
  },
  "24818": {
    "lat": 37.5988,
    "lng": -81.6264,
    "city": "Brenton"
  },
  "24822": {
    "lat": 37.6309,
    "lng": -81.6829,
    "city": "Clear Fork"
  },
  "24823": {
    "lat": 37.6696,
    "lng": -81.7284,
    "city": "Coal Mountain"
  },
  "24826": {
    "lat": 37.2779,
    "lng": -81.6268,
    "city": "Cucumber"
  },
  "24827": {
    "lat": 37.7329,
    "lng": -81.6887,
    "city": "Cyclone"
  },
  "24828": {
    "lat": 37.4784,
    "lng": -81.6534,
    "city": "Davy"
  },
  "24829": {
    "lat": 37.3752,
    "lng": -81.6539,
    "city": "Eckman"
  },
  "24830": {
    "lat": 37.3354,
    "lng": -81.5393,
    "city": "Elbert"
  },
  "24831": {
    "lat": 37.3857,
    "lng": -81.4109,
    "city": "Elkhorn"
  },
  "24834": {
    "lat": 37.5532,
    "lng": -81.6305,
    "city": "Fanrock"
  },
  "24836": {
    "lat": 37.3658,
    "lng": -81.5544,
    "city": "Gary"
  },
  "24839": {
    "lat": 37.563,
    "lng": -81.8136,
    "city": "Hanover"
  },
  "24843": {
    "lat": 37.474,
    "lng": -81.6998,
    "city": "Hensley"
  },
  "24844": {
    "lat": 37.4499,
    "lng": -81.812,
    "city": "Iaeger"
  },
  "24845": {
    "lat": 37.5221,
    "lng": -81.8043,
    "city": "Ikes Fork"
  },
  "24846": {
    "lat": 37.5301,
    "lng": -81.8882,
    "city": "Isaban"
  },
  "24847": {
    "lat": 37.5734,
    "lng": -81.4182,
    "city": "Itmann"
  },
  "24848": {
    "lat": 37.2937,
    "lng": -81.4259,
    "city": "Jenkinjones"
  },
  "24849": {
    "lat": 37.6608,
    "lng": -81.5628,
    "city": "Jesse"
  },
  "24850": {
    "lat": 37.3324,
    "lng": -81.8316,
    "city": "Jolo"
  },
  "24851": {
    "lat": 37.5887,
    "lng": -81.8354,
    "city": "Justice"
  },
  "24853": {
    "lat": 37.4421,
    "lng": -81.512,
    "city": "Kimball"
  },
  "24854": {
    "lat": 37.744,
    "lng": -81.575,
    "city": "Kopperston"
  },
  "24855": {
    "lat": 37.4082,
    "lng": -81.4257,
    "city": "Kyle"
  },
  "24857": {
    "lat": 37.6982,
    "lng": -81.6771,
    "city": "Lynco"
  },
  "24859": {
    "lat": 37.6033,
    "lng": -81.54,
    "city": "Marianna"
  },
  "24860": {
    "lat": 37.6624,
    "lng": -81.607,
    "city": "Matheny"
  },
  "24861": {
    "lat": 37.3709,
    "lng": -81.3665,
    "city": "Maybeury"
  },
  "24862": {
    "lat": 37.5048,
    "lng": -81.9151,
    "city": "Mohawk"
  },
  "24866": {
    "lat": 37.2637,
    "lng": -81.6187,
    "city": "Newhall"
  },
  "24867": {
    "lat": 37.5701,
    "lng": -81.4887,
    "city": "New Richmond"
  },
  "24868": {
    "lat": 37.4194,
    "lng": -81.4058,
    "city": "Northfork"
  },
  "24869": {
    "lat": 37.5682,
    "lng": -81.8254,
    "city": "North Spring"
  },
  "24870": {
    "lat": 37.7407,
    "lng": -81.5831,
    "city": "Oceana"
  },
  "24871": {
    "lat": 37.3493,
    "lng": -81.4654,
    "city": "Pageton"
  },
  "24872": {
    "lat": 37.4834,
    "lng": -81.896,
    "city": "Panther"
  },
  "24873": {
    "lat": 37.3315,
    "lng": -81.8915,
    "city": "Paynesville"
  },
  "24874": {
    "lat": 37.584,
    "lng": -81.5336,
    "city": "Pineville"
  },
  "24878": {
    "lat": 37.4223,
    "lng": -81.6437,
    "city": "Premier"
  },
  "24879": {
    "lat": 37.3244,
    "lng": -81.7614,
    "city": "Raysal"
  },
  "24880": {
    "lat": 37.6179,
    "lng": -81.539,
    "city": "Rock View"
  },
  "24881": {
    "lat": 37.4504,
    "lng": -81.7057,
    "city": "Roderfield"
  },
  "24882": {
    "lat": 37.6197,
    "lng": -81.7586,
    "city": "Simon"
  },
  "24884": {
    "lat": 37.2384,
    "lng": -81.6098,
    "city": "Squire"
  },
  "24887": {
    "lat": 37.3712,
    "lng": -81.3857,
    "city": "Switchback"
  },
  "24888": {
    "lat": 37.3687,
    "lng": -81.5165,
    "city": "Thorpe"
  },
  "24892": {
    "lat": 37.3012,
    "lng": -81.6909,
    "city": "War"
  },
  "24894": {
    "lat": 37.2929,
    "lng": -81.6971,
    "city": "Warriormine"
  },
  "24895": {
    "lat": 37.3752,
    "lng": -81.6539,
    "city": "Wilcoe"
  },
  "24898": {
    "lat": 37.5823,
    "lng": -81.6018,
    "city": "Wyoming"
  },
  "24901": {
    "lat": 37.8083,
    "lng": -80.4407,
    "city": "Lewisburg"
  },
  "24902": {
    "lat": 37.7747,
    "lng": -80.4615,
    "city": "Fairlea"
  },
  "24910": {
    "lat": 37.7371,
    "lng": -80.661,
    "city": "Alderson"
  },
  "24915": {
    "lat": 38.4546,
    "lng": -79.7934,
    "city": "Arbovale"
  },
  "24916": {
    "lat": 37.8313,
    "lng": -80.5747,
    "city": "Asbury"
  },
  "24918": {
    "lat": 37.498,
    "lng": -80.7614,
    "city": "Ballard"
  },
  "24920": {
    "lat": 38.5513,
    "lng": -79.7952,
    "city": "Bartow"
  },
  "24924": {
    "lat": 38.186,
    "lng": -80.1345,
    "city": "Buckeye"
  },
  "24925": {
    "lat": 37.7807,
    "lng": -80.394,
    "city": "Caldwell"
  },
  "24927": {
    "lat": 38.388,
    "lng": -79.9906,
    "city": "Cass"
  },
  "24931": {
    "lat": 37.9397,
    "lng": -80.6309,
    "city": "Crawley"
  },
  "24934": {
    "lat": 38.3636,
    "lng": -79.8556,
    "city": "Dunmore"
  },
  "24935": {
    "lat": 37.5608,
    "lng": -80.8111,
    "city": "Forest Hill"
  },
  "24938": {
    "lat": 37.9154,
    "lng": -80.3353,
    "city": "Frankford"
  },
  "24941": {
    "lat": 37.589,
    "lng": -80.3401,
    "city": "Gap Mills"
  },
  "24943": {
    "lat": 37.8268,
    "lng": -80.7209,
    "city": "Grassy Meadows"
  },
  "24944": {
    "lat": 38.4097,
    "lng": -79.8015,
    "city": "Green Bank"
  },
  "24945": {
    "lat": 37.5435,
    "lng": -80.6826,
    "city": "Greenville"
  },
  "24946": {
    "lat": 38.1109,
    "lng": -80.2641,
    "city": "Hillsboro"
  },
  "24951": {
    "lat": 37.4817,
    "lng": -80.6203,
    "city": "Lindside"
  },
  "24954": {
    "lat": 38.2586,
    "lng": -80.1046,
    "city": "Marlinton"
  },
  "24957": {
    "lat": 37.8765,
    "lng": -80.4192,
    "city": "Maxwelton"
  },
  "24962": {
    "lat": 37.6621,
    "lng": -80.7202,
    "city": "Pence Springs"
  },
  "24963": {
    "lat": 37.4147,
    "lng": -80.7686,
    "city": "Peterstown"
  },
  "24966": {
    "lat": 37.9922,
    "lng": -80.3653,
    "city": "Renick"
  },
  "24970": {
    "lat": 37.7418,
    "lng": -80.4626,
    "city": "Ronceverte"
  },
  "24974": {
    "lat": 37.6654,
    "lng": -80.454,
    "city": "Secondcreek"
  },
  "24976": {
    "lat": 37.6643,
    "lng": -80.5409,
    "city": "Sinks Grove"
  },
  "24977": {
    "lat": 37.8772,
    "lng": -80.668,
    "city": "Smoot"
  },
  "24981": {
    "lat": 37.6491,
    "lng": -80.7461,
    "city": "Talcott"
  },
  "24983": {
    "lat": 37.5802,
    "lng": -80.5248,
    "city": "Union"
  },
  "24984": {
    "lat": 37.4645,
    "lng": -80.4634,
    "city": "Waiteville"
  },
  "24985": {
    "lat": 37.5937,
    "lng": -80.7458,
    "city": "Wayside"
  },
  "24986": {
    "lat": 37.7827,
    "lng": -80.3129,
    "city": "White Sulphur Springs"
  },
  "24991": {
    "lat": 37.9701,
    "lng": -80.4923,
    "city": "Williamsburg"
  },
  "24993": {
    "lat": 37.552,
    "lng": -80.5397,
    "city": "Wolfcreek"
  },
  "25002": {
    "lat": 38.1376,
    "lng": -81.2743,
    "city": "Alloy"
  },
  "25003": {
    "lat": 38.2868,
    "lng": -81.8051,
    "city": "Alum Creek"
  },
  "25005": {
    "lat": 38.5687,
    "lng": -81.2657,
    "city": "Amma"
  },
  "25007": {
    "lat": 37.8334,
    "lng": -81.4301,
    "city": "Arnett"
  },
  "25008": {
    "lat": 37.94,
    "lng": -81.3545,
    "city": "Artie"
  },
  "25009": {
    "lat": 38.1823,
    "lng": -81.7113,
    "city": "Ashford"
  },
  "25011": {
    "lat": 38.5086,
    "lng": -81.841,
    "city": "Bancroft"
  },
  "25015": {
    "lat": 38.2324,
    "lng": -81.5024,
    "city": "Belle"
  },
  "25019": {
    "lat": 38.3729,
    "lng": -81.0868,
    "city": "Bickmore"
  },
  "25021": {
    "lat": 37.9218,
    "lng": -81.6893,
    "city": "Bim"
  },
  "25022": {
    "lat": 37.8784,
    "lng": -81.8279,
    "city": "Blair"
  },
  "25024": {
    "lat": 38.1412,
    "lng": -81.6367,
    "city": "Bloomingrose"
  },
  "25025": {
    "lat": 38.3121,
    "lng": -81.4052,
    "city": "Blount"
  },
  "25026": {
    "lat": 38.4908,
    "lng": -81.3928,
    "city": "Blue Creek"
  },
  "25028": {
    "lat": 37.9543,
    "lng": -81.7185,
    "city": "Bob White"
  },
  "25030": {
    "lat": 38.4498,
    "lng": -81.2323,
    "city": "Bomont"
  },
  "25031": {
    "lat": 38.1519,
    "lng": -81.2656,
    "city": "Boomer"
  },
  "25033": {
    "lat": 38.6092,
    "lng": -81.95,
    "city": "Buffalo"
  },
  "25035": {
    "lat": 38.193,
    "lng": -81.4984,
    "city": "Cabin Creek"
  },
  "25036": {
    "lat": 38.1943,
    "lng": -81.2959,
    "city": "Cannelton"
  },
  "25039": {
    "lat": 38.2212,
    "lng": -81.4279,
    "city": "Cedar Grove"
  },
  "25040": {
    "lat": 38.1237,
    "lng": -81.234,
    "city": "Charlton Heights"
  },
  "25043": {
    "lat": 38.4764,
    "lng": -81.0696,
    "city": "Clay"
  },
  "25044": {
    "lat": 37.9162,
    "lng": -81.3443,
    "city": "Clear Creek"
  },
  "25045": {
    "lat": 38.4539,
    "lng": -81.3572,
    "city": "Clendenin"
  },
  "25047": {
    "lat": 37.9468,
    "lng": -81.8104,
    "city": "Clothier"
  },
  "25048": {
    "lat": 37.9439,
    "lng": -81.4369,
    "city": "Colcord"
  },
  "25049": {
    "lat": 38.1372,
    "lng": -81.5962,
    "city": "Comfort"
  },
  "25051": {
    "lat": 38.1591,
    "lng": -81.7092,
    "city": "Costa"
  },
  "25053": {
    "lat": 38.0809,
    "lng": -81.834,
    "city": "Danville"
  },
  "25054": {
    "lat": 38.1429,
    "lng": -81.4521,
    "city": "Dawes"
  },
  "25057": {
    "lat": 38.1268,
    "lng": -81.2637,
    "city": "Deep Water"
  },
  "25059": {
    "lat": 38.2509,
    "lng": -81.1932,
    "city": "Dixie"
  },
  "25060": {
    "lat": 37.9622,
    "lng": -81.4968,
    "city": "Dorothy"
  },
  "25061": {
    "lat": 38.2968,
    "lng": -81.5547,
    "city": "Drybranch"
  },
  "25062": {
    "lat": 37.8749,
    "lng": -81.4412,
    "city": "Dry Creek"
  },
  "25063": {
    "lat": 38.5647,
    "lng": -80.9764,
    "city": "Duck"
  },
  "25064": {
    "lat": 38.3683,
    "lng": -81.7425,
    "city": "Dunbar"
  },
  "25067": {
    "lat": 38.2099,
    "lng": -81.4381,
    "city": "East Bank"
  },
  "25070": {
    "lat": 38.5436,
    "lng": -81.9414,
    "city": "Eleanor"
  },
  "25071": {
    "lat": 38.4429,
    "lng": -81.4804,
    "city": "Elkview"
  },
  "25075": {
    "lat": 38.0505,
    "lng": -81.4227,
    "city": "Eskdale"
  },
  "25076": {
    "lat": 37.8665,
    "lng": -81.9123,
    "city": "Ethel"
  },
  "25079": {
    "lat": 38.4951,
    "lng": -81.3984,
    "city": "Falling Rock"
  },
  "25081": {
    "lat": 38.0908,
    "lng": -81.7659,
    "city": "Foster"
  },
  "25082": {
    "lat": 38.5517,
    "lng": -82.0111,
    "city": "Fraziers Bottom"
  },
  "25083": {
    "lat": 38.0704,
    "lng": -81.3625,
    "city": "Gallagher"
  },
  "25085": {
    "lat": 38.1689,
    "lng": -81.196,
    "city": "Gauley Bridge"
  },
  "25086": {
    "lat": 38.2154,
    "lng": -81.4246,
    "city": "Glasgow"
  },
  "25088": {
    "lat": 38.3943,
    "lng": -81.2426,
    "city": "Glen"
  },
  "25090": {
    "lat": 38.1532,
    "lng": -81.2148,
    "city": "Glen Ferris"
  },
  "25093": {
    "lat": 37.987,
    "lng": -81.6954,
    "city": "Gordon"
  },
  "25102": {
    "lat": 38.1879,
    "lng": -81.3657,
    "city": "Handley"
  },
  "25103": {
    "lat": 38.207,
    "lng": -81.3929,
    "city": "Hansford"
  },
  "25106": {
    "lat": 38.8265,
    "lng": -82.1364,
    "city": "Henderson"
  },
  "25107": {
    "lat": 38.1942,
    "lng": -81.613,
    "city": "Hernshaw"
  },
  "25108": {
    "lat": 37.9581,
    "lng": -81.8509,
    "city": "Hewett"
  },
  "25109": {
    "lat": 38.5329,
    "lng": -81.8612,
    "city": "Hometown"
  },
  "25110": {
    "lat": 38.2095,
    "lng": -81.3726,
    "city": "Hugheston"
  },
  "25111": {
    "lat": 38.3498,
    "lng": -81.1269,
    "city": "Indore"
  },
  "25112": {
    "lat": 38.3837,
    "lng": -81.7654,
    "city": "Institute"
  },
  "25113": {
    "lat": 38.5357,
    "lng": -81.0348,
    "city": "Ivydale"
  },
  "25114": {
    "lat": 37.9715,
    "lng": -81.8215,
    "city": "Jeffrey"
  },
  "25115": {
    "lat": 38.1426,
    "lng": -81.2065,
    "city": "Kanawha Falls"
  },
  "25118": {
    "lat": 38.1249,
    "lng": -81.3217,
    "city": "Kimberly"
  },
  "25119": {
    "lat": 38.0407,
    "lng": -81.2701,
    "city": "Kincaid"
  },
  "25121": {
    "lat": 37.9204,
    "lng": -81.9034,
    "city": "Lake"
  },
  "25123": {
    "lat": 38.7048,
    "lng": -81.9145,
    "city": "Leon"
  },
  "25124": {
    "lat": 38.62,
    "lng": -81.7678,
    "city": "Liberty"
  },
  "25125": {
    "lat": 38.3366,
    "lng": -81.1633,
    "city": "Lizemores"
  },
  "25126": {
    "lat": 38.196,
    "lng": -81.3714,
    "city": "London"
  },
  "25130": {
    "lat": 38.0444,
    "lng": -81.7938,
    "city": "Madison"
  },
  "25132": {
    "lat": 38.2634,
    "lng": -81.3721,
    "city": "Mammoth"
  },
  "25133": {
    "lat": 38.4939,
    "lng": -81.1227,
    "city": "Maysel"
  },
  "25134": {
    "lat": 38.1523,
    "lng": -81.4479,
    "city": "Miami"
  },
  "25136": {
    "lat": 38.1725,
    "lng": -81.3222,
    "city": "Montgomery"
  },
  "25139": {
    "lat": 38.1399,
    "lng": -81.2931,
    "city": "Mount Carbon"
  },
  "25140": {
    "lat": 37.8676,
    "lng": -81.4873,
    "city": "Naoma"
  },
  "25141": {
    "lat": 38.6271,
    "lng": -81.0257,
    "city": "Nebo"
  },
  "25142": {
    "lat": 38.153,
    "lng": -81.7321,
    "city": "Nellis"
  },
  "25143": {
    "lat": 38.4193,
    "lng": -81.8293,
    "city": "Nitro"
  },
  "25148": {
    "lat": 38.0492,
    "lng": -81.5688,
    "city": "Orgas"
  },
  "25149": {
    "lat": 37.9587,
    "lng": -81.8165,
    "city": "Ottawa"
  },
  "25152": {
    "lat": 38.0529,
    "lng": -81.2698,
    "city": "Page"
  },
  "25154": {
    "lat": 38.125,
    "lng": -81.7018,
    "city": "Peytona"
  },
  "25156": {
    "lat": 38.402,
    "lng": -81.4611,
    "city": "Pinch"
  },
  "25159": {
    "lat": 38.4791,
    "lng": -81.7838,
    "city": "Poca"
  },
  "25160": {
    "lat": 38.2904,
    "lng": -81.2866,
    "city": "Pond Gap"
  },
  "25161": {
    "lat": 38.099,
    "lng": -81.324,
    "city": "Powellton"
  },
  "25162": {
    "lat": 38.2101,
    "lng": -81.3851,
    "city": "Pratt"
  },
  "25164": {
    "lat": 38.4912,
    "lng": -81.1989,
    "city": "Procious"
  },
  "25165": {
    "lat": 38.141,
    "lng": -81.6588,
    "city": "Racine"
  },
  "25168": {
    "lat": 38.5463,
    "lng": -81.9045,
    "city": "Red House"
  },
  "25169": {
    "lat": 38.1486,
    "lng": -81.7725,
    "city": "Ridgeview"
  },
  "25173": {
    "lat": 38.0973,
    "lng": -81.2488,
    "city": "Robson"
  },
  "25174": {
    "lat": 37.8547,
    "lng": -81.4184,
    "city": "Rock Creek"
  },
  "25177": {
    "lat": 38.3774,
    "lng": -81.8305,
    "city": "Saint Albans"
  },
  "25180": {
    "lat": 37.7901,
    "lng": -81.4346,
    "city": "Saxon"
  },
  "25181": {
    "lat": 38.0971,
    "lng": -81.6393,
    "city": "Seth"
  },
  "25183": {
    "lat": 37.9204,
    "lng": -81.8293,
    "city": "Sharples"
  },
  "25185": {
    "lat": 38.2379,
    "lng": -81.2334,
    "city": "Mount Olive"
  },
  "25186": {
    "lat": 38.1812,
    "lng": -81.3071,
    "city": "Smithers"
  },
  "25187": {
    "lat": 38.712,
    "lng": -81.9966,
    "city": "Southside"
  },
  "25193": {
    "lat": 38.0091,
    "lng": -81.5492,
    "city": "Sylvester"
  },
  "25201": {
    "lat": 38.3334,
    "lng": -81.4943,
    "city": "Tad"
  },
  "25202": {
    "lat": 38.3357,
    "lng": -81.8476,
    "city": "Tornado"
  },
  "25203": {
    "lat": 38.0298,
    "lng": -81.8729,
    "city": "Turtle Creek"
  },
  "25204": {
    "lat": 37.926,
    "lng": -81.6141,
    "city": "Twilight"
  },
  "25205": {
    "lat": 38.0357,
    "lng": -81.7807,
    "city": "Uneeda"
  },
  "25206": {
    "lat": 37.9712,
    "lng": -81.7022,
    "city": "Van"
  },
  "25208": {
    "lat": 37.9034,
    "lng": -81.6773,
    "city": "Wharton"
  },
  "25209": {
    "lat": 37.9916,
    "lng": -81.5422,
    "city": "Whitesville"
  },
  "25211": {
    "lat": 38.4662,
    "lng": -80.8573,
    "city": "Widen"
  },
  "25213": {
    "lat": 38.5072,
    "lng": -81.89,
    "city": "Winfield"
  },
  "25214": {
    "lat": 38.1852,
    "lng": -81.5587,
    "city": "Winifrede"
  },
  "25231": {
    "lat": 38.6104,
    "lng": -81.5587,
    "city": "Advent"
  },
  "25234": {
    "lat": 38.8227,
    "lng": -81.1551,
    "city": "Arnoldsburg"
  },
  "25235": {
    "lat": 38.6686,
    "lng": -81.0944,
    "city": "Chloe"
  },
  "25239": {
    "lat": 38.8633,
    "lng": -81.8186,
    "city": "Cottageville"
  },
  "25241": {
    "lat": 38.8113,
    "lng": -81.7909,
    "city": "Evans"
  },
  "25243": {
    "lat": 38.7034,
    "lng": -81.4243,
    "city": "Gandeeville"
  },
  "25244": {
    "lat": 38.7706,
    "lng": -81.5532,
    "city": "Gay"
  },
  "25245": {
    "lat": 38.707,
    "lng": -81.7223,
    "city": "Given"
  },
  "25247": {
    "lat": 39.004,
    "lng": -81.989,
    "city": "Hartford"
  },
  "25248": {
    "lat": 38.6232,
    "lng": -81.6217,
    "city": "Kenna"
  },
  "25251": {
    "lat": 38.6063,
    "lng": -81.2467,
    "city": "Left Hand"
  },
  "25252": {
    "lat": 38.8888,
    "lng": -81.5326,
    "city": "Le Roy"
  },
  "25253": {
    "lat": 38.9311,
    "lng": -81.9751,
    "city": "Letart"
  },
  "25259": {
    "lat": 38.6641,
    "lng": -81.2822,
    "city": "Looneyville"
  },
  "25260": {
    "lat": 39.0064,
    "lng": -82.0282,
    "city": "Mason"
  },
  "25261": {
    "lat": 38.8015,
    "lng": -81.0962,
    "city": "Millstone"
  },
  "25262": {
    "lat": 38.8962,
    "lng": -81.8248,
    "city": "Millwood"
  },
  "25264": {
    "lat": 38.8639,
    "lng": -81.8784,
    "city": "Mount Alto"
  },
  "25265": {
    "lat": 38.9863,
    "lng": -81.9652,
    "city": "New Haven"
  },
  "25266": {
    "lat": 38.606,
    "lng": -81.1623,
    "city": "Newton"
  },
  "25267": {
    "lat": 38.8802,
    "lng": -80.9419,
    "city": "Normantown"
  },
  "25268": {
    "lat": 38.7481,
    "lng": -81.0998,
    "city": "Orma"
  },
  "25270": {
    "lat": 38.8889,
    "lng": -81.4399,
    "city": "Reedy"
  },
  "25271": {
    "lat": 38.809,
    "lng": -81.702,
    "city": "Ripley"
  },
  "25275": {
    "lat": 38.9093,
    "lng": -81.6543,
    "city": "Sandyville"
  },
  "25276": {
    "lat": 38.7897,
    "lng": -81.3303,
    "city": "Spencer"
  },
  "25285": {
    "lat": 38.5432,
    "lng": -81.1114,
    "city": "Wallback"
  },
  "25286": {
    "lat": 38.6023,
    "lng": -81.3958,
    "city": "Walton"
  },
  "25287": {
    "lat": 38.9574,
    "lng": -82.0517,
    "city": "West Columbia"
  },
  "25301": {
    "lat": 38.349,
    "lng": -81.6306,
    "city": "Charleston"
  },
  "25302": {
    "lat": 38.4015,
    "lng": -81.5841,
    "city": "Charleston"
  },
  "25303": {
    "lat": 38.3684,
    "lng": -81.6996,
    "city": "South Charleston"
  },
  "25304": {
    "lat": 38.3173,
    "lng": -81.5903,
    "city": "Charleston"
  },
  "25305": {
    "lat": 38.3358,
    "lng": -81.6123,
    "city": "Charleston"
  },
  "25306": {
    "lat": 38.3175,
    "lng": -81.5274,
    "city": "Charleston"
  },
  "25309": {
    "lat": 38.3684,
    "lng": -81.6996,
    "city": "South Charleston"
  },
  "25311": {
    "lat": 38.349,
    "lng": -81.5993,
    "city": "Charleston"
  },
  "25312": {
    "lat": 38.4096,
    "lng": -81.6747,
    "city": "Charleston"
  },
  "25313": {
    "lat": 38.4142,
    "lng": -81.7582,
    "city": "Charleston"
  },
  "25314": {
    "lat": 38.3274,
    "lng": -81.669,
    "city": "Charleston"
  },
  "25315": {
    "lat": 38.2351,
    "lng": -81.5536,
    "city": "Charleston"
  },
  "25317": {
    "lat": 38.3356,
    "lng": -81.6138,
    "city": "Charleston"
  },
  "25320": {
    "lat": 38.5428,
    "lng": -81.6334,
    "city": "Charleston"
  },
  "25321": {
    "lat": 38.3498,
    "lng": -81.6326,
    "city": "Charleston"
  },
  "25322": {
    "lat": 38.3498,
    "lng": -81.6326,
    "city": "Charleston"
  },
  "25323": {
    "lat": 38.3498,
    "lng": -81.6326,
    "city": "Charleston"
  },
  "25324": {
    "lat": 38.3498,
    "lng": -81.6326,
    "city": "Charleston"
  },
  "25325": {
    "lat": 38.3498,
    "lng": -81.6326,
    "city": "Charleston"
  },
  "25326": {
    "lat": 38.2968,
    "lng": -81.5547,
    "city": "Charleston"
  },
  "25327": {
    "lat": 38.3498,
    "lng": -81.6326,
    "city": "Charleston"
  },
  "25328": {
    "lat": 38.3498,
    "lng": -81.6326,
    "city": "Charleston"
  },
  "25329": {
    "lat": 38.3498,
    "lng": -81.6326,
    "city": "Charleston"
  },
  "25330": {
    "lat": 38.3498,
    "lng": -81.6326,
    "city": "Charleston"
  },
  "25331": {
    "lat": 38.3498,
    "lng": -81.6326,
    "city": "Charleston"
  },
  "25332": {
    "lat": 38.3498,
    "lng": -81.6326,
    "city": "Charleston"
  },
  "25333": {
    "lat": 38.3498,
    "lng": -81.6326,
    "city": "Charleston"
  },
  "25334": {
    "lat": 38.3498,
    "lng": -81.6326,
    "city": "Charleston"
  },
  "25335": {
    "lat": 38.3498,
    "lng": -81.6326,
    "city": "Charleston"
  },
  "25336": {
    "lat": 38.3498,
    "lng": -81.6326,
    "city": "Charleston"
  },
  "25337": {
    "lat": 38.3498,
    "lng": -81.6326,
    "city": "Charleston"
  },
  "25338": {
    "lat": 38.3498,
    "lng": -81.6326,
    "city": "Charleston"
  },
  "25339": {
    "lat": 38.3498,
    "lng": -81.6326,
    "city": "Charleston"
  },
  "25350": {
    "lat": 38.3498,
    "lng": -81.6326,
    "city": "Charleston"
  },
  "25356": {
    "lat": 38.2968,
    "lng": -81.5547,
    "city": "Charleston"
  },
  "25357": {
    "lat": 38.2968,
    "lng": -81.5547,
    "city": "Charleston"
  },
  "25358": {
    "lat": 38.2968,
    "lng": -81.5547,
    "city": "Charleston"
  },
  "25360": {
    "lat": 38.2968,
    "lng": -81.5547,
    "city": "Charleston"
  },
  "25361": {
    "lat": 38.2968,
    "lng": -81.5547,
    "city": "Charleston"
  },
  "25362": {
    "lat": 38.2968,
    "lng": -81.5547,
    "city": "Charleston"
  },
  "25364": {
    "lat": 38.2968,
    "lng": -81.5547,
    "city": "Charleston"
  },
  "25365": {
    "lat": 38.2968,
    "lng": -81.5547,
    "city": "Charleston"
  },
  "25375": {
    "lat": 38.3498,
    "lng": -81.6326,
    "city": "Charleston"
  },
  "25387": {
    "lat": 38.3498,
    "lng": -81.6326,
    "city": "Charleston"
  },
  "25389": {
    "lat": 38.354,
    "lng": -81.6394,
    "city": "Charleston"
  },
  "25392": {
    "lat": 38.3498,
    "lng": -81.6326,
    "city": "Charleston"
  },
  "25396": {
    "lat": 38.3498,
    "lng": -81.6326,
    "city": "Charleston"
  },
  "25401": {
    "lat": 39.4567,
    "lng": -77.9727,
    "city": "Martinsburg"
  },
  "25402": {
    "lat": 39.4562,
    "lng": -77.9639,
    "city": "Martinsburg"
  },
  "25403": {
    "lat": 39.5227,
    "lng": -77.9747,
    "city": "Martinsburg"
  },
  "25404": {
    "lat": 39.4852,
    "lng": -77.8954,
    "city": "Martinsburg"
  },
  "25405": {
    "lat": 39.4092,
    "lng": -77.9615,
    "city": "Martinsburg"
  },
  "25410": {
    "lat": 39.3159,
    "lng": -77.8772,
    "city": "Bakerton"
  },
  "25411": {
    "lat": 39.5526,
    "lng": -78.1877,
    "city": "Berkeley Springs"
  },
  "25413": {
    "lat": 39.3276,
    "lng": -78.0487,
    "city": "Bunker Hill"
  },
  "25414": {
    "lat": 39.2771,
    "lng": -77.8563,
    "city": "Charles Town"
  },
  "25419": {
    "lat": 39.5865,
    "lng": -77.8852,
    "city": "Falling Waters"
  },
  "25420": {
    "lat": 39.378,
    "lng": -78.1141,
    "city": "Gerrardstown"
  },
  "25421": {
    "lat": 39.3813,
    "lng": -78.1435,
    "city": "Glengary"
  },
  "25422": {
    "lat": 39.5836,
    "lng": -78.3331,
    "city": "Great Cacapon"
  },
  "25423": {
    "lat": 39.314,
    "lng": -77.7978,
    "city": "Halltown"
  },
  "25425": {
    "lat": 39.3153,
    "lng": -77.7694,
    "city": "Harpers Ferry"
  },
  "25427": {
    "lat": 39.5214,
    "lng": -78.0912,
    "city": "Hedgesville"
  },
  "25428": {
    "lat": 39.3701,
    "lng": -78.0242,
    "city": "Inwood"
  },
  "25430": {
    "lat": 39.322,
    "lng": -77.9588,
    "city": "Kearneysville"
  },
  "25431": {
    "lat": 39.4976,
    "lng": -78.5508,
    "city": "Levels"
  },
  "25432": {
    "lat": 39.294,
    "lng": -77.7858,
    "city": "Millville"
  },
  "25434": {
    "lat": 39.4923,
    "lng": -78.4586,
    "city": "Paw Paw"
  },
  "25437": {
    "lat": 39.4401,
    "lng": -78.6103,
    "city": "Points"
  },
  "25438": {
    "lat": 39.2995,
    "lng": -77.8606,
    "city": "Ranson"
  },
  "25440": {
    "lat": 39.2973,
    "lng": -78.0717,
    "city": "Ridgeway"
  },
  "25441": {
    "lat": 39.3159,
    "lng": -77.8772,
    "city": "Rippon"
  },
  "25442": {
    "lat": 39.3716,
    "lng": -77.8229,
    "city": "Shenandoah Junction"
  },
  "25443": {
    "lat": 39.4311,
    "lng": -77.8158,
    "city": "Shepherdstown"
  },
  "25444": {
    "lat": 39.3732,
    "lng": -78.5228,
    "city": "Slanesville"
  },
  "25446": {
    "lat": 39.2338,
    "lng": -77.9586,
    "city": "Summit Point"
  },
  "25501": {
    "lat": 38.1609,
    "lng": -81.984,
    "city": "Alkol"
  },
  "25502": {
    "lat": 38.6575,
    "lng": -82.1068,
    "city": "Apple Grove"
  },
  "25503": {
    "lat": 38.6032,
    "lng": -82.1123,
    "city": "Ashton"
  },
  "25504": {
    "lat": 38.3893,
    "lng": -82.296,
    "city": "Barboursville"
  },
  "25505": {
    "lat": 38.0043,
    "lng": -82.0401,
    "city": "Big Creek"
  },
  "25506": {
    "lat": 38.2694,
    "lng": -82.2684,
    "city": "Branchland"
  },
  "25507": {
    "lat": 38.3965,
    "lng": -82.5588,
    "city": "Ceredo"
  },
  "25508": {
    "lat": 37.9737,
    "lng": -82.0174,
    "city": "Chapmanville"
  },
  "25510": {
    "lat": 38.4198,
    "lng": -82.069,
    "city": "Culloden"
  },
  "25511": {
    "lat": 38.0231,
    "lng": -82.4315,
    "city": "Dunlow"
  },
  "25512": {
    "lat": 38.1995,
    "lng": -82.3279,
    "city": "East Lynn"
  },
  "25514": {
    "lat": 38.1335,
    "lng": -82.5541,
    "city": "Fort Gay"
  },
  "25515": {
    "lat": 38.765,
    "lng": -82.1535,
    "city": "Gallipolis Ferry"
  },
  "25517": {
    "lat": 38.1321,
    "lng": -82.4183,
    "city": "Genoa"
  },
  "25520": {
    "lat": 38.5909,
    "lng": -82.1773,
    "city": "Glenwood"
  },
  "25521": {
    "lat": 38.2197,
    "lng": -81.9995,
    "city": "Griffithsville"
  },
  "25523": {
    "lat": 38.2896,
    "lng": -82.1047,
    "city": "Hamlin"
  },
  "25524": {
    "lat": 38.0341,
    "lng": -82.1008,
    "city": "Harts"
  },
  "25526": {
    "lat": 38.4257,
    "lng": -81.9943,
    "city": "Hurricane"
  },
  "25529": {
    "lat": 38.1264,
    "lng": -81.8642,
    "city": "Julian"
  },
  "25530": {
    "lat": 38.3569,
    "lng": -82.5255,
    "city": "Kenova"
  },
  "25534": {
    "lat": 38.0915,
    "lng": -82.3274,
    "city": "Kiahsville"
  },
  "25535": {
    "lat": 38.3305,
    "lng": -82.4287,
    "city": "Lavalette"
  },
  "25537": {
    "lat": 38.477,
    "lng": -82.2957,
    "city": "Lesage"
  },
  "25540": {
    "lat": 38.1762,
    "lng": -82.1788,
    "city": "Midkiff"
  },
  "25541": {
    "lat": 38.414,
    "lng": -82.1458,
    "city": "Milton"
  },
  "25544": {
    "lat": 38.2198,
    "lng": -82.1351,
    "city": "Myra"
  },
  "25545": {
    "lat": 38.4529,
    "lng": -82.2181,
    "city": "Ona"
  },
  "25547": {
    "lat": 37.9298,
    "lng": -81.9654,
    "city": "Pecks Mill"
  },
  "25550": {
    "lat": 38.8632,
    "lng": -82.1132,
    "city": "Point Pleasant"
  },
  "25555": {
    "lat": 38.23,
    "lng": -82.5753,
    "city": "Prichard"
  },
  "25557": {
    "lat": 38.097,
    "lng": -82.1633,
    "city": "Ranger"
  },
  "25559": {
    "lat": 38.3265,
    "lng": -82.247,
    "city": "Salt Rock"
  },
  "25560": {
    "lat": 38.4501,
    "lng": -81.9005,
    "city": "Scott Depot"
  },
  "25562": {
    "lat": 38.3432,
    "lng": -82.4905,
    "city": "Shoals"
  },
  "25564": {
    "lat": 38.2559,
    "lng": -81.891,
    "city": "Sod"
  },
  "25565": {
    "lat": 38.1057,
    "lng": -82.0272,
    "city": "Spurlockville"
  },
  "25567": {
    "lat": 38.2312,
    "lng": -81.9115,
    "city": "Sumerco"
  },
  "25569": {
    "lat": 38.4754,
    "lng": -81.8805,
    "city": "Teays"
  },
  "25570": {
    "lat": 38.2258,
    "lng": -82.4339,
    "city": "Wayne"
  },
  "25571": {
    "lat": 38.2886,
    "lng": -82.1843,
    "city": "West Hamlin"
  },
  "25572": {
    "lat": 38.1615,
    "lng": -81.8921,
    "city": "Woodville"
  },
  "25573": {
    "lat": 38.2193,
    "lng": -81.9568,
    "city": "Yawkey"
  },
  "25601": {
    "lat": 37.8487,
    "lng": -81.9935,
    "city": "Logan"
  },
  "25606": {
    "lat": 37.7687,
    "lng": -81.8371,
    "city": "Accoville"
  },
  "25607": {
    "lat": 37.7959,
    "lng": -81.7833,
    "city": "Amherstdale"
  },
  "25608": {
    "lat": 37.584,
    "lng": -81.9051,
    "city": "Baisden"
  },
  "25611": {
    "lat": 37.6907,
    "lng": -81.869,
    "city": "Bruno"
  },
  "25612": {
    "lat": 37.7662,
    "lng": -81.9876,
    "city": "Chauncey"
  },
  "25614": {
    "lat": 37.8332,
    "lng": -81.9024,
    "city": "Cora"
  },
  "25617": {
    "lat": 37.7265,
    "lng": -81.8057,
    "city": "Davin"
  },
  "25621": {
    "lat": 37.6366,
    "lng": -81.9501,
    "city": "Gilbert"
  },
  "25624": {
    "lat": 37.9023,
    "lng": -81.9882,
    "city": "Henlawson"
  },
  "25625": {
    "lat": 37.83,
    "lng": -82.0585,
    "city": "Holden"
  },
  "25628": {
    "lat": 37.7562,
    "lng": -81.8601,
    "city": "Kistler"
  },
  "25630": {
    "lat": 37.7957,
    "lng": -81.7148,
    "city": "Lorado"
  },
  "25632": {
    "lat": 37.7656,
    "lng": -81.9217,
    "city": "Lyburn"
  },
  "25634": {
    "lat": 37.7307,
    "lng": -81.8379,
    "city": "Mallory"
  },
  "25635": {
    "lat": 37.7357,
    "lng": -81.8754,
    "city": "Man"
  },
  "25637": {
    "lat": 37.8415,
    "lng": -82.0087,
    "city": "Mount Gay"
  },
  "25638": {
    "lat": 37.7557,
    "lng": -81.9996,
    "city": "Omar"
  },
  "25639": {
    "lat": 37.8752,
    "lng": -81.9826,
    "city": "Peach Creek"
  },
  "25644": {
    "lat": 37.7112,
    "lng": -81.9873,
    "city": "Sarah Ann"
  },
  "25646": {
    "lat": 37.8303,
    "lng": -81.9639,
    "city": "Stollings"
  },
  "25647": {
    "lat": 37.7846,
    "lng": -81.9908,
    "city": "Switzer"
  },
  "25649": {
    "lat": 37.8445,
    "lng": -82.0551,
    "city": "Verdunville"
  },
  "25650": {
    "lat": 37.6634,
    "lng": -81.8504,
    "city": "Verner"
  },
  "25651": {
    "lat": 37.5554,
    "lng": -81.9657,
    "city": "Wharncliffe"
  },
  "25652": {
    "lat": 37.8035,
    "lng": -82.0466,
    "city": "Whitman"
  },
  "25653": {
    "lat": 37.8279,
    "lng": -81.9976,
    "city": "Wilkinson"
  },
  "25654": {
    "lat": 37.7818,
    "lng": -81.892,
    "city": "Yolyn"
  },
  "25661": {
    "lat": 37.6902,
    "lng": -82.2642,
    "city": "Williamson"
  },
  "25665": {
    "lat": 37.7214,
    "lng": -82.3084,
    "city": "Borderland"
  },
  "25666": {
    "lat": 37.9198,
    "lng": -82.2547,
    "city": "Breeden"
  },
  "25667": {
    "lat": 37.7047,
    "lng": -82.2739,
    "city": "Chattaroy"
  },
  "25669": {
    "lat": 37.9389,
    "lng": -82.4624,
    "city": "Crum"
  },
  "25670": {
    "lat": 37.7189,
    "lng": -82.1931,
    "city": "Delbarton"
  },
  "25671": {
    "lat": 37.8703,
    "lng": -82.1951,
    "city": "Dingess"
  },
  "25672": {
    "lat": 37.7431,
    "lng": -82.108,
    "city": "Edgarton"
  },
  "25674": {
    "lat": 37.8642,
    "lng": -82.3741,
    "city": "Kermit"
  },
  "25676": {
    "lat": 37.799,
    "lng": -82.2868,
    "city": "Lenore"
  },
  "25678": {
    "lat": 37.5903,
    "lng": -82.0652,
    "city": "Matewan"
  },
  "25685": {
    "lat": 37.7898,
    "lng": -82.349,
    "city": "Naugatuck"
  },
  "25686": {
    "lat": 37.7431,
    "lng": -82.108,
    "city": "Newtown"
  },
  "25688": {
    "lat": 37.6265,
    "lng": -82.1482,
    "city": "North Matewan"
  },
  "25690": {
    "lat": 37.6898,
    "lng": -82.1244,
    "city": "Ragland"
  },
  "25691": {
    "lat": 37.6498,
    "lng": -82.2196,
    "city": "Rawl"
  },
  "25692": {
    "lat": 37.6484,
    "lng": -82.1401,
    "city": "Red Jacket"
  },
  "25696": {
    "lat": 37.6693,
    "lng": -82.1221,
    "city": "Varney"
  },
  "25699": {
    "lat": 37.9537,
    "lng": -82.3276,
    "city": "Wilsondale"
  },
  "25701": {
    "lat": 38.4097,
    "lng": -82.4423,
    "city": "Huntington"
  },
  "25702": {
    "lat": 38.4286,
    "lng": -82.3911,
    "city": "Huntington"
  },
  "25703": {
    "lat": 38.4211,
    "lng": -82.4227,
    "city": "Huntington"
  },
  "25704": {
    "lat": 38.3849,
    "lng": -82.5036,
    "city": "Huntington"
  },
  "25705": {
    "lat": 38.4096,
    "lng": -82.369,
    "city": "Huntington"
  },
  "25706": {
    "lat": 38.4134,
    "lng": -82.2774,
    "city": "Huntington"
  },
  "25707": {
    "lat": 38.4134,
    "lng": -82.2774,
    "city": "Huntington"
  },
  "25708": {
    "lat": 38.4192,
    "lng": -82.4452,
    "city": "Huntington"
  },
  "25709": {
    "lat": 38.4192,
    "lng": -82.4452,
    "city": "Huntington"
  },
  "25710": {
    "lat": 38.4192,
    "lng": -82.4452,
    "city": "Huntington"
  },
  "25711": {
    "lat": 38.4134,
    "lng": -82.2774,
    "city": "Huntington"
  },
  "25712": {
    "lat": 38.4134,
    "lng": -82.2774,
    "city": "Huntington"
  },
  "25713": {
    "lat": 38.4134,
    "lng": -82.2774,
    "city": "Huntington"
  },
  "25714": {
    "lat": 38.4134,
    "lng": -82.2774,
    "city": "Huntington"
  },
  "25715": {
    "lat": 38.4134,
    "lng": -82.2774,
    "city": "Huntington"
  },
  "25716": {
    "lat": 38.4134,
    "lng": -82.2774,
    "city": "Huntington"
  },
  "25717": {
    "lat": 38.4192,
    "lng": -82.4452,
    "city": "Huntington"
  },
  "25718": {
    "lat": 38.4192,
    "lng": -82.4452,
    "city": "Huntington"
  },
  "25719": {
    "lat": 38.4192,
    "lng": -82.4452,
    "city": "Huntington"
  },
  "25720": {
    "lat": 38.4134,
    "lng": -82.2774,
    "city": "Huntington"
  },
  "25721": {
    "lat": 38.4192,
    "lng": -82.4452,
    "city": "Huntington"
  },
  "25722": {
    "lat": 38.4192,
    "lng": -82.4452,
    "city": "Huntington"
  },
  "25723": {
    "lat": 38.4192,
    "lng": -82.4452,
    "city": "Huntington"
  },
  "25724": {
    "lat": 38.4192,
    "lng": -82.4452,
    "city": "Huntington"
  },
  "25725": {
    "lat": 38.4134,
    "lng": -82.2774,
    "city": "Huntington"
  },
  "25726": {
    "lat": 38.4134,
    "lng": -82.2774,
    "city": "Huntington"
  },
  "25727": {
    "lat": 38.4134,
    "lng": -82.2774,
    "city": "Huntington"
  },
  "25728": {
    "lat": 38.4134,
    "lng": -82.2774,
    "city": "Huntington"
  },
  "25729": {
    "lat": 38.4134,
    "lng": -82.2774,
    "city": "Huntington"
  },
  "25755": {
    "lat": 38.4221,
    "lng": -82.4317,
    "city": "Huntington"
  },
  "25770": {
    "lat": 38.4134,
    "lng": -82.2774,
    "city": "Huntington"
  },
  "25771": {
    "lat": 38.4134,
    "lng": -82.2774,
    "city": "Huntington"
  },
  "25772": {
    "lat": 38.4134,
    "lng": -82.2774,
    "city": "Huntington"
  },
  "25773": {
    "lat": 38.4134,
    "lng": -82.2774,
    "city": "Huntington"
  },
  "25774": {
    "lat": 38.4134,
    "lng": -82.2774,
    "city": "Huntington"
  },
  "25775": {
    "lat": 38.4134,
    "lng": -82.2774,
    "city": "Huntington"
  },
  "25776": {
    "lat": 38.4134,
    "lng": -82.2774,
    "city": "Huntington"
  },
  "25777": {
    "lat": 38.4134,
    "lng": -82.2774,
    "city": "Huntington"
  },
  "25778": {
    "lat": 38.4134,
    "lng": -82.2774,
    "city": "Huntington"
  },
  "25779": {
    "lat": 38.4134,
    "lng": -82.2774,
    "city": "Huntington"
  },
  "25801": {
    "lat": 37.7932,
    "lng": -81.2061,
    "city": "Beckley"
  },
  "25802": {
    "lat": 37.7489,
    "lng": -81.2245,
    "city": "Beckley"
  },
  "25810": {
    "lat": 37.5893,
    "lng": -81.3507,
    "city": "Allen Junction"
  },
  "25811": {
    "lat": 37.5965,
    "lng": -81.3209,
    "city": "Amigo"
  },
  "25812": {
    "lat": 38.1369,
    "lng": -81.0955,
    "city": "Ansted"
  },
  "25813": {
    "lat": 37.7516,
    "lng": -81.0731,
    "city": "Beaver"
  },
  "25817": {
    "lat": 37.7673,
    "lng": -81.4156,
    "city": "Bolt"
  },
  "25818": {
    "lat": 37.8654,
    "lng": -81.194,
    "city": "Bradley"
  },
  "25820": {
    "lat": 37.4841,
    "lng": -81.1111,
    "city": "Camp Creek"
  },
  "25823": {
    "lat": 37.679,
    "lng": -81.2104,
    "city": "Coal City"
  },
  "25825": {
    "lat": 37.6655,
    "lng": -81.0933,
    "city": "Cool Ridge"
  },
  "25826": {
    "lat": 37.5729,
    "lng": -81.3565,
    "city": "Corinne"
  },
  "25827": {
    "lat": 37.7385,
    "lng": -81.2536,
    "city": "Crab Orchard"
  },
  "25831": {
    "lat": 37.9567,
    "lng": -80.9379,
    "city": "Danese"
  },
  "25832": {
    "lat": 37.7256,
    "lng": -81.1087,
    "city": "Daniels"
  },
  "25833": {
    "lat": 38.0413,
    "lng": -81.0648,
    "city": "Dothan"
  },
  "25836": {
    "lat": 37.7792,
    "lng": -81.2635,
    "city": "Eccles"
  },
  "25837": {
    "lat": 38.0544,
    "lng": -81.0326,
    "city": "Edmond"
  },
  "25839": {
    "lat": 37.7815,
    "lng": -81.3632,
    "city": "Fairdale"
  },
  "25840": {
    "lat": 38.064,
    "lng": -81.0943,
    "city": "Fayetteville"
  },
  "25841": {
    "lat": 37.55,
    "lng": -81.128,
    "city": "Flat Top"
  },
  "25843": {
    "lat": 37.6208,
    "lng": -81.1019,
    "city": "Ghent"
  },
  "25844": {
    "lat": 37.8251,
    "lng": -81.3858,
    "city": "Glen Daniel"
  },
  "25845": {
    "lat": 37.6959,
    "lng": -81.529,
    "city": "Glen Fork"
  },
  "25846": {
    "lat": 37.9265,
    "lng": -81.1501,
    "city": "Glen Jean"
  },
  "25848": {
    "lat": 37.7217,
    "lng": -81.429,
    "city": "Glen Rogers"
  },
  "25849": {
    "lat": 37.7306,
    "lng": -81.2799,
    "city": "Glen White"
  },
  "25851": {
    "lat": 37.8025,
    "lng": -81.2828,
    "city": "Harper"
  },
  "25853": {
    "lat": 37.6375,
    "lng": -81.3138,
    "city": "Helen"
  },
  "25854": {
    "lat": 38.1094,
    "lng": -80.9638,
    "city": "Hico"
  },
  "25855": {
    "lat": 37.9429,
    "lng": -81.1509,
    "city": "Hilltop"
  },
  "25857": {
    "lat": 37.6221,
    "lng": -81.2176,
    "city": "Josephine"
  },
  "25860": {
    "lat": 37.8276,
    "lng": -81.1462,
    "city": "Lanark"
  },
  "25862": {
    "lat": 38.0869,
    "lng": -81.0588,
    "city": "Lansing"
  },
  "25864": {
    "lat": 37.8893,
    "lng": -80.9712,
    "city": "Layland"
  },
  "25865": {
    "lat": 37.7265,
    "lng": -81.3095,
    "city": "Lester"
  },
  "25866": {
    "lat": 38.0107,
    "lng": -81.1451,
    "city": "Lochgelly"
  },
  "25868": {
    "lat": 38.0654,
    "lng": -80.9684,
    "city": "Lookout"
  },
  "25870": {
    "lat": 37.6387,
    "lng": -81.394,
    "city": "Maben"
  },
  "25871": {
    "lat": 37.77,
    "lng": -81.2103,
    "city": "Mabscott"
  },
  "25873": {
    "lat": 37.7517,
    "lng": -81.2148,
    "city": "Mac Arthur"
  },
  "25875": {
    "lat": 37.6033,
    "lng": -81.54,
    "city": "Mc Graws"
  },
  "25876": {
    "lat": 37.6429,
    "lng": -81.4568,
    "city": "Saulsville"
  },
  "25878": {
    "lat": 37.7171,
    "lng": -81.24,
    "city": "Midway"
  },
  "25879": {
    "lat": 37.9758,
    "lng": -81.115,
    "city": "Minden"
  },
  "25880": {
    "lat": 37.8782,
    "lng": -81.2058,
    "city": "Mount Hope"
  },
  "25882": {
    "lat": 37.5842,
    "lng": -81.389,
    "city": "Mullens"
  },
  "25888": {
    "lat": 37.893,
    "lng": -81.1668,
    "city": "Mount Hope"
  },
  "25901": {
    "lat": 37.9723,
    "lng": -81.1487,
    "city": "Oak Hill"
  },
  "25902": {
    "lat": 37.593,
    "lng": -81.1872,
    "city": "Odd"
  },
  "25904": {
    "lat": 37.911,
    "lng": -81.2648,
    "city": "Pax"
  },
  "25906": {
    "lat": 37.8376,
    "lng": -81.1286,
    "city": "Piney View"
  },
  "25907": {
    "lat": 37.8532,
    "lng": -81.0817,
    "city": "Prince"
  },
  "25908": {
    "lat": 37.6724,
    "lng": -81.2561,
    "city": "Princewick"
  },
  "25909": {
    "lat": 37.8381,
    "lng": -81.2004,
    "city": "Prosperity"
  },
  "25911": {
    "lat": 37.7585,
    "lng": -81.1675,
    "city": "Raleigh"
  },
  "25913": {
    "lat": 37.7141,
    "lng": -81.4895,
    "city": "Ravencliff"
  },
  "25915": {
    "lat": 37.6254,
    "lng": -81.2749,
    "city": "Rhodell"
  },
  "25916": {
    "lat": 37.6787,
    "lng": -81.5015,
    "city": "Sabine"
  },
  "25917": {
    "lat": 37.9488,
    "lng": -81.1531,
    "city": "Scarbro"
  },
  "25918": {
    "lat": 37.7416,
    "lng": -81.0149,
    "city": "Shady Spring"
  },
  "25919": {
    "lat": 37.8005,
    "lng": -81.1806,
    "city": "Skelton"
  },
  "25920": {
    "lat": 37.6871,
    "lng": -81.334,
    "city": "Slab Fork"
  },
  "25921": {
    "lat": 37.7076,
    "lng": -81.2507,
    "city": "Sophia"
  },
  "25922": {
    "lat": 37.4605,
    "lng": -81.1128,
    "city": "Spanishburg"
  },
  "25927": {
    "lat": 37.8159,
    "lng": -81.1523,
    "city": "Stanaford"
  },
  "25928": {
    "lat": 37.5798,
    "lng": -81.3339,
    "city": "Stephenson"
  },
  "25932": {
    "lat": 37.7565,
    "lng": -81.3092,
    "city": "Surveyor"
  },
  "25936": {
    "lat": 37.9554,
    "lng": -81.0714,
    "city": "Thurmond"
  },
  "25938": {
    "lat": 38.1402,
    "lng": -81.0322,
    "city": "Victor"
  },
  "25942": {
    "lat": 38.0465,
    "lng": -80.9923,
    "city": "Winona"
  },
  "25943": {
    "lat": 37.599,
    "lng": -81.3429,
    "city": "Wyco"
  },
  "25951": {
    "lat": 37.664,
    "lng": -80.8678,
    "city": "Hinton"
  },
  "25958": {
    "lat": 38.0023,
    "lng": -80.737,
    "city": "Charmco"
  },
  "25962": {
    "lat": 37.9661,
    "lng": -80.7821,
    "city": "Rainelle"
  },
  "25966": {
    "lat": 37.6485,
    "lng": -80.8774,
    "city": "Green Sulphur Springs"
  },
  "25969": {
    "lat": 37.6188,
    "lng": -81.0018,
    "city": "Jumping Branch"
  },
  "25971": {
    "lat": 37.4925,
    "lng": -80.9796,
    "city": "Lerona"
  },
  "25972": {
    "lat": 38.0446,
    "lng": -80.7229,
    "city": "Leslie"
  },
  "25976": {
    "lat": 37.878,
    "lng": -80.8521,
    "city": "Meadow Bridge"
  },
  "25977": {
    "lat": 37.8101,
    "lng": -80.9231,
    "city": "Meadow Creek"
  },
  "25978": {
    "lat": 37.6286,
    "lng": -80.9446,
    "city": "Nimitz"
  },
  "25979": {
    "lat": 37.5303,
    "lng": -80.9463,
    "city": "Pipestem"
  },
  "25981": {
    "lat": 38.0576,
    "lng": -80.7068,
    "city": "Quinwood"
  },
  "25984": {
    "lat": 37.9685,
    "lng": -80.6696,
    "city": "Rupert"
  },
  "25985": {
    "lat": 37.7599,
    "lng": -80.8716,
    "city": "Sandstone"
  },
  "25986": {
    "lat": 37.8798,
    "lng": -80.8034,
    "city": "Spring Dale"
  },
  "25989": {
    "lat": 37.6929,
    "lng": -81.0729,
    "city": "White Oak"
  },
  "26003": {
    "lat": 40.1027,
    "lng": -80.6476,
    "city": "Wheeling"
  },
  "26030": {
    "lat": 40.2259,
    "lng": -80.6513,
    "city": "Beech Bottom"
  },
  "26031": {
    "lat": 40.0181,
    "lng": -80.7342,
    "city": "Benwood"
  },
  "26032": {
    "lat": 40.2107,
    "lng": -80.5503,
    "city": "Bethany"
  },
  "26033": {
    "lat": 39.8227,
    "lng": -80.5669,
    "city": "Cameron"
  },
  "26034": {
    "lat": 40.5981,
    "lng": -80.5584,
    "city": "Chester"
  },
  "26035": {
    "lat": 40.3484,
    "lng": -80.5493,
    "city": "Colliers"
  },
  "26036": {
    "lat": 39.9783,
    "lng": -80.5508,
    "city": "Dallas"
  },
  "26037": {
    "lat": 40.3296,
    "lng": -80.585,
    "city": "Follansbee"
  },
  "26038": {
    "lat": 39.9597,
    "lng": -80.7323,
    "city": "Glen Dale"
  },
  "26039": {
    "lat": 39.8531,
    "lng": -80.6661,
    "city": "Glen Easton"
  },
  "26040": {
    "lat": 39.9881,
    "lng": -80.7315,
    "city": "Mcmechen"
  },
  "26041": {
    "lat": 39.9148,
    "lng": -80.731,
    "city": "Moundsville"
  },
  "26047": {
    "lat": 40.5228,
    "lng": -80.5901,
    "city": "New Cumberland"
  },
  "26050": {
    "lat": 40.614,
    "lng": -80.6011,
    "city": "Newell"
  },
  "26055": {
    "lat": 39.7207,
    "lng": -80.7618,
    "city": "Proctor"
  },
  "26056": {
    "lat": 40.5315,
    "lng": -80.5801,
    "city": "New Manchester"
  },
  "26058": {
    "lat": 40.1856,
    "lng": -80.6745,
    "city": "Short Creek"
  },
  "26059": {
    "lat": 40.0699,
    "lng": -80.5953,
    "city": "Triadelphia"
  },
  "26060": {
    "lat": 40.0946,
    "lng": -80.5551,
    "city": "Valley Grove"
  },
  "26062": {
    "lat": 40.4137,
    "lng": -80.5683,
    "city": "Weirton"
  },
  "26070": {
    "lat": 40.2548,
    "lng": -80.5961,
    "city": "Wellsburg"
  },
  "26074": {
    "lat": 40.1698,
    "lng": -80.5958,
    "city": "West Liberty"
  },
  "26075": {
    "lat": 40.1927,
    "lng": -80.6659,
    "city": "Windsor Heights"
  },
  "26101": {
    "lat": 39.2644,
    "lng": -81.5354,
    "city": "Parkersburg"
  },
  "26102": {
    "lat": 39.2183,
    "lng": -81.4979,
    "city": "Parkersburg"
  },
  "26103": {
    "lat": 39.2364,
    "lng": -81.5405,
    "city": "Parkersburg"
  },
  "26104": {
    "lat": 39.2804,
    "lng": -81.4936,
    "city": "Parkersburg"
  },
  "26105": {
    "lat": 39.3251,
    "lng": -81.5411,
    "city": "Vienna"
  },
  "26106": {
    "lat": 39.2183,
    "lng": -81.4979,
    "city": "Parkersburg"
  },
  "26120": {
    "lat": 39.2183,
    "lng": -81.4979,
    "city": "Mineral Wells"
  },
  "26121": {
    "lat": 39.2183,
    "lng": -81.4979,
    "city": "Mineral Wells"
  },
  "26133": {
    "lat": 39.1314,
    "lng": -81.6923,
    "city": "Belleville"
  },
  "26134": {
    "lat": 39.3795,
    "lng": -81.2584,
    "city": "Belmont"
  },
  "26136": {
    "lat": 38.9719,
    "lng": -81.136,
    "city": "Big Bend"
  },
  "26137": {
    "lat": 38.9854,
    "lng": -81.0721,
    "city": "Big Springs"
  },
  "26138": {
    "lat": 39.0338,
    "lng": -81.1775,
    "city": "Brohard"
  },
  "26141": {
    "lat": 38.9378,
    "lng": -81.2369,
    "city": "Creston"
  },
  "26142": {
    "lat": 39.2126,
    "lng": -81.4799,
    "city": "Davisville"
  },
  "26143": {
    "lat": 39.0566,
    "lng": -81.3989,
    "city": "Elizabeth"
  },
  "26146": {
    "lat": 39.4961,
    "lng": -81.0572,
    "city": "Friendly"
  },
  "26147": {
    "lat": 38.9324,
    "lng": -81.0763,
    "city": "Grantsville"
  },
  "26148": {
    "lat": 39.0806,
    "lng": -81.1776,
    "city": "Macfarlan"
  },
  "26149": {
    "lat": 39.4942,
    "lng": -80.9076,
    "city": "Middlebourne"
  },
  "26150": {
    "lat": 39.1897,
    "lng": -81.5139,
    "city": "Mineral Wells"
  },
  "26151": {
    "lat": 38.8286,
    "lng": -81.1322,
    "city": "Mount Zion"
  },
  "26152": {
    "lat": 39.0054,
    "lng": -81.2062,
    "city": "Munday"
  },
  "26155": {
    "lat": 39.6588,
    "lng": -80.8565,
    "city": "New Martinsville"
  },
  "26159": {
    "lat": 39.6044,
    "lng": -80.9265,
    "city": "Paden City"
  },
  "26160": {
    "lat": 38.9741,
    "lng": -81.428,
    "city": "Palestine"
  },
  "26161": {
    "lat": 39.1741,
    "lng": -81.2406,
    "city": "Petroleum"
  },
  "26162": {
    "lat": 39.5798,
    "lng": -80.7762,
    "city": "Porters Falls"
  },
  "26164": {
    "lat": 38.9468,
    "lng": -81.7524,
    "city": "Ravenswood"
  },
  "26167": {
    "lat": 39.5836,
    "lng": -80.7516,
    "city": "Reader"
  },
  "26169": {
    "lat": 39.0798,
    "lng": -81.5713,
    "city": "Rockport"
  },
  "26170": {
    "lat": 39.386,
    "lng": -81.1725,
    "city": "Saint Marys"
  },
  "26175": {
    "lat": 39.5584,
    "lng": -80.9818,
    "city": "Sistersville"
  },
  "26178": {
    "lat": 39.0671,
    "lng": -81.062,
    "city": "Smithville"
  },
  "26180": {
    "lat": 39.1821,
    "lng": -81.3866,
    "city": "Walker"
  },
  "26181": {
    "lat": 39.2068,
    "lng": -81.6577,
    "city": "Washington"
  },
  "26184": {
    "lat": 39.3157,
    "lng": -81.3819,
    "city": "Waverly"
  },
  "26187": {
    "lat": 39.3824,
    "lng": -81.4566,
    "city": "Williamstown"
  },
  "26201": {
    "lat": 38.9755,
    "lng": -80.2407,
    "city": "Buckhannon"
  },
  "26202": {
    "lat": 38.2447,
    "lng": -80.635,
    "city": "Fenwick"
  },
  "26203": {
    "lat": 38.5419,
    "lng": -80.5742,
    "city": "Erbacon"
  },
  "26205": {
    "lat": 38.3254,
    "lng": -80.6444,
    "city": "Craigsville"
  },
  "26206": {
    "lat": 38.4133,
    "lng": -80.5358,
    "city": "Cowen"
  },
  "26208": {
    "lat": 38.3871,
    "lng": -80.5907,
    "city": "Camden On Gauley"
  },
  "26209": {
    "lat": 38.4133,
    "lng": -80.0068,
    "city": "Snowshoe"
  },
  "26210": {
    "lat": 38.8993,
    "lng": -80.2269,
    "city": "Adrian"
  },
  "26215": {
    "lat": 38.7133,
    "lng": -80.388,
    "city": "Cleveland"
  },
  "26217": {
    "lat": 38.5755,
    "lng": -80.432,
    "city": "Diana"
  },
  "26218": {
    "lat": 38.8993,
    "lng": -80.2269,
    "city": "French Creek"
  },
  "26219": {
    "lat": 38.8993,
    "lng": -80.2269,
    "city": "Frenchton"
  },
  "26222": {
    "lat": 38.6526,
    "lng": -80.3837,
    "city": "Hacker Valley"
  },
  "26224": {
    "lat": 38.7713,
    "lng": -80.1382,
    "city": "Helvetia"
  },
  "26228": {
    "lat": 38.7618,
    "lng": -80.3727,
    "city": "Kanawha Head"
  },
  "26229": {
    "lat": 39.0109,
    "lng": -80.3023,
    "city": "Lorentz"
  },
  "26230": {
    "lat": 38.6551,
    "lng": -80.2117,
    "city": "Pickens"
  },
  "26234": {
    "lat": 38.7811,
    "lng": -80.3163,
    "city": "Rock Cave"
  },
  "26236": {
    "lat": 38.754,
    "lng": -80.2365,
    "city": "Selbyville"
  },
  "26237": {
    "lat": 38.8564,
    "lng": -80.158,
    "city": "Tallmansville"
  },
  "26238": {
    "lat": 39.0784,
    "lng": -80.1354,
    "city": "Volga"
  },
  "26241": {
    "lat": 38.9253,
    "lng": -79.8471,
    "city": "Elkins"
  },
  "26250": {
    "lat": 39.0244,
    "lng": -79.9495,
    "city": "Belington"
  },
  "26253": {
    "lat": 38.828,
    "lng": -79.8651,
    "city": "Beverly"
  },
  "26254": {
    "lat": 38.9087,
    "lng": -79.7098,
    "city": "Bowden"
  },
  "26257": {
    "lat": 38.9144,
    "lng": -79.9767,
    "city": "Coalton"
  },
  "26259": {
    "lat": 38.7987,
    "lng": -79.8962,
    "city": "Dailey"
  },
  "26260": {
    "lat": 39.0882,
    "lng": -79.4563,
    "city": "Davis"
  },
  "26261": {
    "lat": 38.223,
    "lng": -80.5445,
    "city": "Richwood"
  },
  "26263": {
    "lat": 38.9489,
    "lng": -79.4376,
    "city": "Dryfork"
  },
  "26264": {
    "lat": 38.5457,
    "lng": -79.8251,
    "city": "Durbin"
  },
  "26266": {
    "lat": 38.4185,
    "lng": -80.4965,
    "city": "Upperglade"
  },
  "26267": {
    "lat": 38.9243,
    "lng": -80.0904,
    "city": "Ellamore"
  },
  "26268": {
    "lat": 38.7534,
    "lng": -79.8147,
    "city": "Glady"
  },
  "26269": {
    "lat": 39.0821,
    "lng": -79.6453,
    "city": "Hambleton"
  },
  "26270": {
    "lat": 38.9234,
    "lng": -79.5246,
    "city": "Harman"
  },
  "26271": {
    "lat": 39.0748,
    "lng": -79.6303,
    "city": "Hendricks"
  },
  "26273": {
    "lat": 38.6784,
    "lng": -79.9775,
    "city": "Huttonsville"
  },
  "26275": {
    "lat": 38.9784,
    "lng": -79.9494,
    "city": "Junior"
  },
  "26276": {
    "lat": 39.0299,
    "lng": -79.7754,
    "city": "Kerens"
  },
  "26278": {
    "lat": 38.8765,
    "lng": -79.9831,
    "city": "Mabie"
  },
  "26280": {
    "lat": 38.7325,
    "lng": -79.9786,
    "city": "Mill Creek"
  },
  "26282": {
    "lat": 38.5517,
    "lng": -80.1224,
    "city": "Monterville"
  },
  "26283": {
    "lat": 39.0964,
    "lng": -79.7896,
    "city": "Montrose"
  },
  "26285": {
    "lat": 38.9318,
    "lng": -79.9656,
    "city": "Norton"
  },
  "26287": {
    "lat": 39.096,
    "lng": -79.6787,
    "city": "Parsons"
  },
  "26288": {
    "lat": 38.4832,
    "lng": -80.4476,
    "city": "Webster Springs"
  },
  "26289": {
    "lat": 39.1179,
    "lng": -79.5637,
    "city": "Red Creek"
  },
  "26291": {
    "lat": 38.388,
    "lng": -79.9906,
    "city": "Slatyfork"
  },
  "26292": {
    "lat": 39.1505,
    "lng": -79.503,
    "city": "Thomas"
  },
  "26293": {
    "lat": 38.7718,
    "lng": -79.9253,
    "city": "Valley Bend"
  },
  "26294": {
    "lat": 38.5315,
    "lng": -80.0343,
    "city": "Valley Head"
  },
  "26296": {
    "lat": 38.7516,
    "lng": -79.5819,
    "city": "Whitmer"
  },
  "26298": {
    "lat": 38.4865,
    "lng": -80.3006,
    "city": "Bergoo"
  },
  "26301": {
    "lat": 39.2874,
    "lng": -80.3419,
    "city": "Clarksburg"
  },
  "26302": {
    "lat": 39.2677,
    "lng": -80.3077,
    "city": "Clarksburg"
  },
  "26306": {
    "lat": 39.2852,
    "lng": -80.3853,
    "city": "Clarksburg"
  },
  "26320": {
    "lat": 39.4506,
    "lng": -80.8701,
    "city": "Alma"
  },
  "26321": {
    "lat": 39.0425,
    "lng": -80.6882,
    "city": "Alum Bridge"
  },
  "26323": {
    "lat": 39.2587,
    "lng": -80.2875,
    "city": "Anmoore"
  },
  "26325": {
    "lat": 39.0864,
    "lng": -80.8837,
    "city": "Auburn"
  },
  "26327": {
    "lat": 39.1365,
    "lng": -80.9337,
    "city": "Berea"
  },
  "26330": {
    "lat": 39.2954,
    "lng": -80.2427,
    "city": "Bridgeport"
  },
  "26335": {
    "lat": 38.7775,
    "lng": -80.657,
    "city": "Burnsville"
  },
  "26337": {
    "lat": 39.2325,
    "lng": -81.1554,
    "city": "Cairo"
  },
  "26338": {
    "lat": 39.0893,
    "lng": -80.5915,
    "city": "Camden"
  },
  "26339": {
    "lat": 39.4125,
    "lng": -80.6352,
    "city": "Center Point"
  },
  "26342": {
    "lat": 39.0301,
    "lng": -80.8498,
    "city": "Coxs Mills"
  },
  "26343": {
    "lat": 38.872,
    "lng": -80.4368,
    "city": "Crawford"
  },
  "26346": {
    "lat": 39.2969,
    "lng": -81.0621,
    "city": "Ellenboro"
  },
  "26347": {
    "lat": 39.2665,
    "lng": -80.132,
    "city": "Flemington"
  },
  "26348": {
    "lat": 39.4693,
    "lng": -80.5258,
    "city": "Folsom"
  },
  "26349": {
    "lat": 39.2318,
    "lng": -80.122,
    "city": "Galloway"
  },
  "26351": {
    "lat": 38.9409,
    "lng": -80.8313,
    "city": "Glenville"
  },
  "26354": {
    "lat": 39.3414,
    "lng": -80.0285,
    "city": "Grafton"
  },
  "26361": {
    "lat": 39.3687,
    "lng": -80.3179,
    "city": "Gypsy"
  },
  "26362": {
    "lat": 39.1453,
    "lng": -81.0341,
    "city": "Harrisville"
  },
  "26366": {
    "lat": 39.3812,
    "lng": -80.3359,
    "city": "Haywood"
  },
  "26369": {
    "lat": 39.3312,
    "lng": -80.3325,
    "city": "Hepzibah"
  },
  "26372": {
    "lat": 38.9726,
    "lng": -80.3656,
    "city": "Horner"
  },
  "26374": {
    "lat": 39.4464,
    "lng": -79.8822,
    "city": "Independence"
  },
  "26376": {
    "lat": 38.7763,
    "lng": -80.4567,
    "city": "Ireland"
  },
  "26377": {
    "lat": 39.5416,
    "lng": -80.6437,
    "city": "Jacksonburg"
  },
  "26378": {
    "lat": 39.11,
    "lng": -80.4311,
    "city": "Jane Lew"
  },
  "26384": {
    "lat": 38.9573,
    "lng": -80.73,
    "city": "Linn"
  },
  "26385": {
    "lat": 39.1725,
    "lng": -80.3777,
    "city": "Lost Creek"
  },
  "26386": {
    "lat": 39.3781,
    "lng": -80.3676,
    "city": "Lumberport"
  },
  "26404": {
    "lat": 39.3518,
    "lng": -80.3187,
    "city": "Meadowbrook"
  },
  "26405": {
    "lat": 39.2234,
    "lng": -79.9017,
    "city": "Moatsville"
  },
  "26408": {
    "lat": 39.2107,
    "lng": -80.2899,
    "city": "Mount Clare"
  },
  "26410": {
    "lat": 39.4027,
    "lng": -79.828,
    "city": "Newburg"
  },
  "26411": {
    "lat": 39.1899,
    "lng": -80.7076,
    "city": "New Milton"
  },
  "26412": {
    "lat": 38.8712,
    "lng": -80.5937,
    "city": "Orlando"
  },
  "26415": {
    "lat": 39.2791,
    "lng": -81.0019,
    "city": "Pennsboro"
  },
  "26416": {
    "lat": 39.1613,
    "lng": -80.0492,
    "city": "Philippi"
  },
  "26419": {
    "lat": 39.5755,
    "lng": -80.6667,
    "city": "Pine Grove"
  },
  "26421": {
    "lat": 39.19,
    "lng": -80.9347,
    "city": "Pullman"
  },
  "26422": {
    "lat": 39.2884,
    "lng": -80.4348,
    "city": "Reynoldsville"
  },
  "26424": {
    "lat": 39.2687,
    "lng": -80.1629,
    "city": "Rosemont"
  },
  "26425": {
    "lat": 39.313,
    "lng": -79.7049,
    "city": "Rowlesburg"
  },
  "26426": {
    "lat": 39.2829,
    "lng": -80.559,
    "city": "Salem"
  },
  "26430": {
    "lat": 38.914,
    "lng": -80.7498,
    "city": "Sand Fork"
  },
  "26431": {
    "lat": 39.3888,
    "lng": -80.2834,
    "city": "Shinnston"
  },
  "26434": {
    "lat": 39.3981,
    "lng": -80.7651,
    "city": "Shirley"
  },
  "26435": {
    "lat": 39.2668,
    "lng": -80.0934,
    "city": "Simpson"
  },
  "26436": {
    "lat": 39.2893,
    "lng": -80.7343,
    "city": "Smithburg"
  },
  "26437": {
    "lat": 39.5134,
    "lng": -80.5582,
    "city": "Smithfield"
  },
  "26438": {
    "lat": 39.3465,
    "lng": -80.3206,
    "city": "Spelter"
  },
  "26440": {
    "lat": 39.3329,
    "lng": -79.9096,
    "city": "Thornton"
  },
  "26443": {
    "lat": 39.0839,
    "lng": -80.7549,
    "city": "Troy"
  },
  "26444": {
    "lat": 39.3625,
    "lng": -79.7478,
    "city": "Tunnelton"
  },
  "26447": {
    "lat": 38.8507,
    "lng": -80.4802,
    "city": "Walkersville"
  },
  "26448": {
    "lat": 39.4117,
    "lng": -80.4865,
    "city": "Wallace"
  },
  "26451": {
    "lat": 39.1996,
    "lng": -80.4026,
    "city": "West Milford"
  },
  "26452": {
    "lat": 39.0411,
    "lng": -80.4737,
    "city": "Weston"
  },
  "26456": {
    "lat": 39.2762,
    "lng": -80.7911,
    "city": "West Union"
  },
  "26463": {
    "lat": 39.4351,
    "lng": -80.3534,
    "city": "Wyatt"
  },
  "26501": {
    "lat": 39.6099,
    "lng": -79.9831,
    "city": "Morgantown"
  },
  "26502": {
    "lat": 39.6253,
    "lng": -79.9672,
    "city": "Morgantown"
  },
  "26504": {
    "lat": 39.5785,
    "lng": -80.093,
    "city": "Morgantown"
  },
  "26505": {
    "lat": 39.6505,
    "lng": -79.944,
    "city": "Morgantown"
  },
  "26506": {
    "lat": 39.6453,
    "lng": -79.9627,
    "city": "Morgantown"
  },
  "26507": {
    "lat": 39.6808,
    "lng": -79.8365,
    "city": "Morgantown"
  },
  "26508": {
    "lat": 39.5953,
    "lng": -79.9229,
    "city": "Morgantown"
  },
  "26519": {
    "lat": 39.5701,
    "lng": -79.6358,
    "city": "Albright"
  },
  "26520": {
    "lat": 39.4951,
    "lng": -79.8151,
    "city": "Arthurdale"
  },
  "26521": {
    "lat": 39.7142,
    "lng": -80.2265,
    "city": "Blacksville"
  },
  "26524": {
    "lat": 39.5423,
    "lng": -79.8006,
    "city": "Bretz"
  },
  "26525": {
    "lat": 39.6454,
    "lng": -79.6159,
    "city": "Bruceton Mills"
  },
  "26527": {
    "lat": 39.6656,
    "lng": -80.0637,
    "city": "Cassville"
  },
  "26531": {
    "lat": 39.6053,
    "lng": -79.8958,
    "city": "Dellslow"
  },
  "26534": {
    "lat": 39.6459,
    "lng": -79.9873,
    "city": "Granville"
  },
  "26537": {
    "lat": 39.4819,
    "lng": -79.7063,
    "city": "Kingwood"
  },
  "26541": {
    "lat": 39.6884,
    "lng": -79.9801,
    "city": "Maidsville"
  },
  "26542": {
    "lat": 39.5731,
    "lng": -79.7906,
    "city": "Masontown"
  },
  "26543": {
    "lat": 39.6587,
    "lng": -80.0076,
    "city": "Osage"
  },
  "26544": {
    "lat": 39.5785,
    "lng": -80.093,
    "city": "Pentress"
  },
  "26546": {
    "lat": 39.6746,
    "lng": -80.035,
    "city": "Pursglove"
  },
  "26547": {
    "lat": 39.5127,
    "lng": -79.812,
    "city": "Reedsville"
  },
  "26554": {
    "lat": 39.4941,
    "lng": -80.2213,
    "city": "Fairmont"
  },
  "26555": {
    "lat": 39.5143,
    "lng": -80.2185,
    "city": "Fairmont"
  },
  "26559": {
    "lat": 39.5052,
    "lng": -80.1725,
    "city": "Barrackville"
  },
  "26560": {
    "lat": 39.544,
    "lng": -80.1423,
    "city": "Baxter"
  },
  "26561": {
    "lat": 39.5845,
    "lng": -80.5776,
    "city": "Big Run"
  },
  "26562": {
    "lat": 39.6511,
    "lng": -80.4161,
    "city": "Burton"
  },
  "26563": {
    "lat": 39.4782,
    "lng": -80.272,
    "city": "Carolina"
  },
  "26566": {
    "lat": 39.4348,
    "lng": -80.1317,
    "city": "Colfax"
  },
  "26568": {
    "lat": 39.4209,
    "lng": -80.2779,
    "city": "Enterprise"
  },
  "26570": {
    "lat": 39.6103,
    "lng": -80.2529,
    "city": "Fairview"
  },
  "26571": {
    "lat": 39.5029,
    "lng": -80.2566,
    "city": "Farmington"
  },
  "26572": {
    "lat": 39.4798,
    "lng": -80.3098,
    "city": "Four States"
  },
  "26574": {
    "lat": 39.5587,
    "lng": -80.1805,
    "city": "Grant Town"
  },
  "26575": {
    "lat": 39.6917,
    "lng": -80.4746,
    "city": "Hundred"
  },
  "26576": {
    "lat": 39.4877,
    "lng": -80.2666,
    "city": "Idamay"
  },
  "26578": {
    "lat": 39.4466,
    "lng": -80.1762,
    "city": "Kingmont"
  },
  "26581": {
    "lat": 39.6592,
    "lng": -80.5695,
    "city": "Littleton"
  },
  "26582": {
    "lat": 39.522,
    "lng": -80.3552,
    "city": "Mannington"
  },
  "26585": {
    "lat": 39.6078,
    "lng": -80.4168,
    "city": "Metz"
  },
  "26586": {
    "lat": 39.5191,
    "lng": -80.0897,
    "city": "Montana Mines"
  },
  "26587": {
    "lat": 39.5225,
    "lng": -80.2957,
    "city": "Rachel"
  },
  "26588": {
    "lat": 39.5568,
    "lng": -80.1417,
    "city": "Rivesville"
  },
  "26590": {
    "lat": 39.6735,
    "lng": -80.3183,
    "city": "Wana"
  },
  "26591": {
    "lat": 39.4522,
    "lng": -80.2905,
    "city": "Worthington"
  },
  "26601": {
    "lat": 38.6541,
    "lng": -80.676,
    "city": "Sutton"
  },
  "26610": {
    "lat": 38.4914,
    "lng": -80.7459,
    "city": "Birch River"
  },
  "26611": {
    "lat": 38.8451,
    "lng": -80.8323,
    "city": "Cedarville"
  },
  "26615": {
    "lat": 38.8376,
    "lng": -80.7295,
    "city": "Copen"
  },
  "26617": {
    "lat": 38.489,
    "lng": -80.8257,
    "city": "Dille"
  },
  "26619": {
    "lat": 38.7358,
    "lng": -80.7324,
    "city": "Exchange"
  },
  "26621": {
    "lat": 38.7232,
    "lng": -80.6498,
    "city": "Flatwoods"
  },
  "26623": {
    "lat": 38.6305,
    "lng": -80.8589,
    "city": "Frametown"
  },
  "26624": {
    "lat": 38.6862,
    "lng": -80.7863,
    "city": "Gassaway"
  },
  "26627": {
    "lat": 38.7621,
    "lng": -80.6406,
    "city": "Heaters"
  },
  "26629": {
    "lat": 38.579,
    "lng": -80.7068,
    "city": "Little Birch"
  },
  "26631": {
    "lat": 38.7909,
    "lng": -80.5887,
    "city": "Napier"
  },
  "26636": {
    "lat": 38.7393,
    "lng": -80.9429,
    "city": "Rosedale"
  },
  "26638": {
    "lat": 38.7617,
    "lng": -81.0045,
    "city": "Shock"
  },
  "26651": {
    "lat": 38.3009,
    "lng": -80.8353,
    "city": "Summersville"
  },
  "26656": {
    "lat": 38.2491,
    "lng": -81.1566,
    "city": "Belva"
  },
  "26660": {
    "lat": 38.3368,
    "lng": -80.7145,
    "city": "Calvin"
  },
  "26662": {
    "lat": 38.2624,
    "lng": -80.7446,
    "city": "Canvas"
  },
  "26667": {
    "lat": 38.3184,
    "lng": -80.8342,
    "city": "Drennen"
  },
  "26671": {
    "lat": 38.3184,
    "lng": -80.8342,
    "city": "Gilboa"
  },
  "26675": {
    "lat": 38.2354,
    "lng": -80.9357,
    "city": "Keslers Cross Lanes"
  },
  "26676": {
    "lat": 38.1558,
    "lng": -80.6827,
    "city": "Leivasy"
  },
  "26678": {
    "lat": 38.1821,
    "lng": -80.9108,
    "city": "Mount Lookout"
  },
  "26679": {
    "lat": 38.1653,
    "lng": -80.7976,
    "city": "Mount Nebo"
  },
  "26680": {
    "lat": 38.1107,
    "lng": -80.877,
    "city": "Nallen"
  },
  "26681": {
    "lat": 38.209,
    "lng": -80.6953,
    "city": "Nettie"
  },
  "26684": {
    "lat": 38.1637,
    "lng": -80.8643,
    "city": "Pool"
  },
  "26690": {
    "lat": 38.2255,
    "lng": -81.1273,
    "city": "Swiss"
  },
  "26691": {
    "lat": 38.4045,
    "lng": -80.6667,
    "city": "Tioga"
  },
  "26704": {
    "lat": 39.2998,
    "lng": -78.5931,
    "city": "Augusta"
  },
  "26705": {
    "lat": 39.3181,
    "lng": -79.5764,
    "city": "Aurora"
  },
  "26707": {
    "lat": 39.2729,
    "lng": -79.3645,
    "city": "Bayard"
  },
  "26710": {
    "lat": 39.3376,
    "lng": -78.9181,
    "city": "Burlington"
  },
  "26711": {
    "lat": 39.2802,
    "lng": -78.4644,
    "city": "Capon Bridge"
  },
  "26714": {
    "lat": 39.1945,
    "lng": -78.6042,
    "city": "Delray"
  },
  "26716": {
    "lat": 39.2925,
    "lng": -79.5109,
    "city": "Eglon"
  },
  "26717": {
    "lat": 39.3631,
    "lng": -79.1539,
    "city": "Elk Garden"
  },
  "26719": {
    "lat": 39.497,
    "lng": -78.7743,
    "city": "Fort Ashby"
  },
  "26720": {
    "lat": 39.2803,
    "lng": -79.3296,
    "city": "Gormania"
  },
  "26722": {
    "lat": 39.5029,
    "lng": -78.6272,
    "city": "Green Spring"
  },
  "26726": {
    "lat": 39.4527,
    "lng": -78.8926,
    "city": "Keyser"
  },
  "26731": {
    "lat": 39.1642,
    "lng": -79.0433,
    "city": "Lahmansville"
  },
  "26739": {
    "lat": 39.2652,
    "lng": -79.2255,
    "city": "Mount Storm"
  },
  "26743": {
    "lat": 39.3612,
    "lng": -79.0452,
    "city": "New Creek"
  },
  "26750": {
    "lat": 39.4799,
    "lng": -79.0489,
    "city": "Piedmont"
  },
  "26753": {
    "lat": 39.5636,
    "lng": -78.7887,
    "city": "Ridgeley"
  },
  "26755": {
    "lat": 39.1847,
    "lng": -78.727,
    "city": "Rio"
  },
  "26757": {
    "lat": 39.3424,
    "lng": -78.7481,
    "city": "Romney"
  },
  "26761": {
    "lat": 39.2849,
    "lng": -78.6995,
    "city": "Shanks"
  },
  "26763": {
    "lat": 39.463,
    "lng": -78.695,
    "city": "Springfield"
  },
  "26764": {
    "lat": 39.4456,
    "lng": -79.5464,
    "city": "Terra Alta"
  },
  "26767": {
    "lat": 39.6133,
    "lng": -78.775,
    "city": "Wiley Ford"
  },
  "26801": {
    "lat": 39.0656,
    "lng": -78.7748,
    "city": "Baker"
  },
  "26802": {
    "lat": 38.6357,
    "lng": -79.2096,
    "city": "Brandywine"
  },
  "26804": {
    "lat": 38.623,
    "lng": -79.5367,
    "city": "Circleville"
  },
  "26807": {
    "lat": 38.64,
    "lng": -79.3538,
    "city": "Franklin"
  },
  "26808": {
    "lat": 39.2225,
    "lng": -78.4425,
    "city": "High View"
  },
  "26810": {
    "lat": 38.9812,
    "lng": -78.7448,
    "city": "Lost City"
  },
  "26812": {
    "lat": 38.8744,
    "lng": -78.8814,
    "city": "Mathias"
  },
  "26814": {
    "lat": 38.744,
    "lng": -79.4359,
    "city": "Riverton"
  },
  "26815": {
    "lat": 38.489,
    "lng": -79.3593,
    "city": "Sugar Grove"
  },
  "26817": {
    "lat": 39.3604,
    "lng": -78.3917,
    "city": "Bloomery"
  },
  "26818": {
    "lat": 39.075,
    "lng": -79.0342,
    "city": "Fisher"
  },
  "26823": {
    "lat": 39.1362,
    "lng": -78.4845,
    "city": "Capon Springs"
  },
  "26833": {
    "lat": 39.0712,
    "lng": -79.1937,
    "city": "Maysville"
  },
  "26836": {
    "lat": 38.9907,
    "lng": -78.9745,
    "city": "Moorefield"
  },
  "26838": {
    "lat": 38.8125,
    "lng": -79.0729,
    "city": "Milam"
  },
  "26845": {
    "lat": 39.1502,
    "lng": -78.9509,
    "city": "Old Fields"
  },
  "26847": {
    "lat": 38.9908,
    "lng": -79.1293,
    "city": "Petersburg"
  },
  "26851": {
    "lat": 39.0562,
    "lng": -78.6175,
    "city": "Wardensville"
  },
  "26852": {
    "lat": 39.2681,
    "lng": -78.906,
    "city": "Purgitsville"
  },
  "26855": {
    "lat": 38.9512,
    "lng": -79.2783,
    "city": "Cabins"
  },
  "26865": {
    "lat": 39.1823,
    "lng": -78.5095,
    "city": "Yellow Spring"
  },
  "26866": {
    "lat": 38.795,
    "lng": -79.2586,
    "city": "Upper Tract"
  },
  "26884": {
    "lat": 38.8296,
    "lng": -79.3866,
    "city": "Seneca Rocks"
  },
  "26886": {
    "lat": 38.8017,
    "lng": -79.4507,
    "city": "Onego"
  }
}
