{
  "96701": { "lat": 21.3908, "lng": -157.9332, "city": "Aiea" },
  "96703": { "lat": 22.1423, "lng": -159.3139, "city": "Anahola" },
  "96704": { "lat": 19.4386, "lng": -155.8875, "city": "Captain Cook" },
  "96705": { "lat": 21.9074, "lng": -159.5832, "city": "Eleele" },
  "96706": { "lat": 21.3274, "lng": -158.0103, "city": "Ewa Beach" },
  "96707": { "lat": 21.3453, "lng": -158.087, "city": "Kapolei" },
  "96708": { "lat": 20.9071, "lng": -156.3, "city": "Haiku" },
  "96709": { "lat": 21.3233, "lng": -158.0058, "city": "Kapolei" },
  "96710": { "lat": 19.8882, "lng": -155.1333, "city": "Hakalau" },
  "96712": { "lat": 21.6312, "lng": -158.0693, "city": "Haleiwa" },
  "96713": { "lat": 20.7616, "lng": -156.0397, "city": "Hana" },
  "96714": { "lat": 22.1603, "lng": -159.5471, "city": "Hanalei" },
  "96715": { "lat": 21.9977, "lng": -159.3592, "city": "Hanamaulu" },
  "96716": { "lat": 21.9156, "lng": -159.592, "city": "Hanapepe" },
  "96717": { "lat": 21.6139, "lng": -157.9157, "city": "Hauula" },
  "96718": { "lat": 19.5935, "lng": -155.438, "city": "Hawaii National Park" },
  "96719": { "lat": 20.238, "lng": -155.838, "city": "Hawi" },
  "96720": { "lat": 19.7025, "lng": -155.0939, "city": "Hilo" },
  "96721": { "lat": 19.7299, "lng": -155.0907, "city": "Hilo" },
  "96722": { "lat": 22.2192, "lng": -159.4866, "city": "Princeville" },
  "96725": { "lat": 19.6103, "lng": -155.9176, "city": "Holualoa" },
  "96726": { "lat": 19.4273, "lng": -155.9133, "city": "Honaunau" },
  "96727": { "lat": 20.0827, "lng": -155.488, "city": "Honokaa" },
  "96728": { "lat": 19.8728, "lng": -155.1177, "city": "Honomu" },
  "96729": { "lat": 21.173, "lng": -157.0791, "city": "Hoolehua" },
  "96730": { "lat": 21.5481, "lng": -157.8495, "city": "Kaaawa" },
  "96731": { "lat": 21.675, "lng": -157.9725, "city": "Kahuku" },
  "96732": { "lat": 20.8814, "lng": -156.4783, "city": "Kahului" },
  "96733": { "lat": 20.8895, "lng": -156.4743, "city": "Kahului" },
  "96734": { "lat": 21.4063, "lng": -157.7448, "city": "Kailua" },
  "96737": { "lat": 19.1002, "lng": -155.7258, "city": "Ocean View" },
  "96738": { "lat": 19.9724, "lng": -155.818, "city": "Waikoloa" },
  "96739": { "lat": 19.5606, "lng": -155.9623, "city": "Keauhou" },
  "96740": { "lat": 19.6531, "lng": -155.9798, "city": "Kailua Kona" },
  "96741": { "lat": 21.9259, "lng": -159.5303, "city": "Kalaheo" },
  "96742": { "lat": 21.1929, "lng": -156.9835, "city": "Kalaupapa" },
  "96743": { "lat": 20.0081, "lng": -155.7052, "city": "Kamuela" },
  "96744": { "lat": 21.4228, "lng": -157.8115, "city": "Kaneohe" },
  "96745": { "lat": 19.5935, "lng": -155.438, "city": "Kailua Kona" },
  "96746": { "lat": 22.0868, "lng": -159.3448, "city": "Kapaa" },
  "96747": { "lat": 21.9213, "lng": -159.6241, "city": "Kaumakani" },
  "96748": { "lat": 21.0905, "lng": -156.969, "city": "Kaunakakai" },
  "96749": { "lat": 19.5893, "lng": -154.9926, "city": "Keaau" },
  "96750": { "lat": 19.5261, "lng": -155.93, "city": "Kealakekua" },
  "96751": { "lat": 22.106, "lng": -159.3085, "city": "Kealia" },
  "96752": { "lat": 21.9735, "lng": -159.7199, "city": "Kekaha" },
  "96753": { "lat": 20.7441, "lng": -156.4475, "city": "Kihei" },
  "96754": { "lat": 22.2073, "lng": -159.3954, "city": "Kilauea" },
  "96755": { "lat": 20.2183, "lng": -155.799, "city": "Kapaau" },
  "96756": { "lat": 21.9083, "lng": -159.4749, "city": "Koloa" },
  "96757": { "lat": 21.1601, "lng": -157.0277, "city": "Kualapuu" },
  "96759": { "lat": 21.463, "lng": -158.0639, "city": "Kunia" },
  "96760": { "lat": 19.5693, "lng": -155.0349, "city": "Kurtistown" },
  "96761": { "lat": 20.9174, "lng": -156.6772, "city": "Lahaina" },
  "96762": { "lat": 21.6253, "lng": -157.941, "city": "Laie" },
  "96763": { "lat": 20.8293, "lng": -156.921, "city": "Lanai City" },
  "96764": { "lat": 19.9802, "lng": -155.2323, "city": "Laupahoehoe" },
  "96765": { "lat": 21.9309, "lng": -159.4993, "city": "Lawai" },
  "96766": { "lat": 21.9816, "lng": -159.3683, "city": "Lihue" },
  "96767": { "lat": 20.8666, "lng": -156.6467, "city": "Lahaina" },
  "96768": { "lat": 20.8469, "lng": -156.3327, "city": "Makawao" },
  "96769": { "lat": 21.9454, "lng": -159.9214, "city": "Makaweli" },
  "96770": { "lat": 21.1422, "lng": -157.2193, "city": "Maunaloa" },
  "96771": { "lat": 19.5506, "lng": -155.0864, "city": "Mountain View" },
  "96772": { "lat": 19.0668, "lng": -155.6575, "city": "Naalehu" },
  "96773": { "lat": 19.935, "lng": -155.1668, "city": "Ninole" },
  "96774": { "lat": 20.0119, "lng": -155.2747, "city": "Ookala" },
  "96776": { "lat": 20.0271, "lng": -155.3697, "city": "Paauilo" },
  "96777": { "lat": 19.2079, "lng": -155.4815, "city": "Pahala" },
  "96778": { "lat": 19.5089, "lng": -154.9231, "city": "Pahoa" },
  "96779": { "lat": 20.9154, "lng": -156.3802, "city": "Paia" },
  "96780": { "lat": 19.9751, "lng": -155.2203, "city": "Papaaloa" },
  "96781": { "lat": 19.7916, "lng": -155.0984, "city": "Papaikou" },
  "96782": { "lat": 21.4084, "lng": -157.9652, "city": "Pearl City" },
  "96783": { "lat": 19.8353, "lng": -155.113, "city": "Pepeekeo" },
  "96784": { "lat": 20.8666, "lng": -156.6467, "city": "Puunene" },
  "96785": { "lat": 19.4801, "lng": -155.1974, "city": "Volcano" },
  "96786": { "lat": 21.5006, "lng": -158.0435, "city": "Wahiawa" },
  "96788": { "lat": 20.8559, "lng": -156.3259, "city": "Pukalani" },
  "96789": { "lat": 21.4531, "lng": -158.0174, "city": "Mililani" },
  "96790": { "lat": 20.7534, "lng": -156.326, "city": "Kula" },
  "96791": { "lat": 21.5766, "lng": -158.1267, "city": "Waialua" },
  "96792": { "lat": 21.4352, "lng": -158.1781, "city": "Waianae" },
  "96793": { "lat": 20.8966, "lng": -156.5036, "city": "Wailuku" },
  "96795": { "lat": 21.3418, "lng": -157.7131, "city": "Waimanalo" },
  "96796": { "lat": 21.9571, "lng": -159.6689, "city": "Waimea" },
  "96797": { "lat": 21.3982, "lng": -158.0124, "city": "Waipahu" },
  "96801": { "lat": 21.3278, "lng": -157.8294, "city": "Honolulu" },
  "96802": { "lat": 21.306, "lng": -157.8587, "city": "Honolulu" },
  "96803": { "lat": 21.306, "lng": -157.8585, "city": "Honolulu" },
  "96804": { "lat": 21.306, "lng": -157.8585, "city": "Honolulu" },
  "96805": { "lat": 21.3062, "lng": -157.8585, "city": "Honolulu" },
  "96806": { "lat": 21.3062, "lng": -157.8585, "city": "Honolulu" },
  "96807": { "lat": 21.3062, "lng": -157.8585, "city": "Honolulu" },
  "96808": { "lat": 21.3062, "lng": -157.8585, "city": "Honolulu" },
  "96809": { "lat": 21.3062, "lng": -157.8585, "city": "Honolulu" },
  "96810": { "lat": 21.3062, "lng": -157.8585, "city": "Honolulu" },
  "96811": { "lat": 21.3278, "lng": -157.8294, "city": "Honolulu" },
  "96812": { "lat": 21.3061, "lng": -157.8585, "city": "Honolulu" },
  "96813": { "lat": 21.3179, "lng": -157.8521, "city": "Honolulu" },
  "96814": { "lat": 21.2998, "lng": -157.8439, "city": "Honolulu" },
  "96815": { "lat": 21.2811, "lng": -157.8266, "city": "Honolulu" },
  "96816": { "lat": 21.2887, "lng": -157.8006, "city": "Honolulu" },
  "96817": { "lat": 21.3295, "lng": -157.8615, "city": "Honolulu" },
  "96818": { "lat": 21.3532, "lng": -157.9269, "city": "Honolulu" },
  "96819": { "lat": 21.3488, "lng": -157.8759, "city": "Honolulu" },
  "96820": { "lat": 21.351, "lng": -157.8795, "city": "Honolulu" },
  "96821": { "lat": 21.2928, "lng": -157.7552, "city": "Honolulu" },
  "96822": { "lat": 21.3117, "lng": -157.8298, "city": "Honolulu" },
  "96823": { "lat": 21.3072, "lng": -157.8465, "city": "Honolulu" },
  "96824": { "lat": 21.2808, "lng": -157.7552, "city": "Honolulu" },
  "96825": { "lat": 21.2987, "lng": -157.6985, "city": "Honolulu" },
  "96826": { "lat": 21.2941, "lng": -157.8284, "city": "Honolulu" },
  "96828": { "lat": 21.294, "lng": -157.8226, "city": "Honolulu" },
  "96830": { "lat": 21.2841, "lng": -157.834, "city": "Honolulu" },
  "96836": { "lat": 21.2899, "lng": -157.8384, "city": "Honolulu" },
  "96837": { "lat": 21.315, "lng": -157.8633, "city": "Honolulu" },
  "96838": { "lat": 21.349, "lng": -157.875, "city": "Honolulu" },
  "96839": { "lat": 21.3206, "lng": -157.8126, "city": "Honolulu" },
  "96840": { "lat": 21.3068, "lng": -157.8607, "city": "Honolulu" },
  "96841": { "lat": 21.3103, "lng": -157.8594, "city": "Honolulu" },
  "96843": { "lat": 21.3055, "lng": -157.853, "city": "Honolulu" },
  "96844": { "lat": 21.2951, "lng": -157.8162, "city": "Honolulu" },
  "96846": { "lat": 21.3206, "lng": -157.8699, "city": "Honolulu" },
  "96847": { "lat": 21.3022, "lng": -157.8443, "city": "Honolulu" },
  "96848": { "lat": 21.3206, "lng": -157.8126, "city": "Honolulu" },
  "96849": { "lat": 21.3341, "lng": -157.9172, "city": "Honolulu" },
  "96850": { "lat": 21.3095, "lng": -157.863, "city": "Honolulu" },
  "96853": { "lat": 21.4061, "lng": -157.9609, "city": "Jbphh" },
  "96854": { "lat": 21.4877, "lng": -158.0351, "city": "Wheeler Army Airfield" },
  "96857": { "lat": 21.4963, "lng": -158.0646, "city": "Schofield Barracks" },
  "96858": { "lat": 21.3416, "lng": -157.8918, "city": "Fort Shafter" },
  "96859": { "lat": 21.4061, "lng": -157.9609, "city": "Tripler Army Medical Center" },
  "96860": { "lat": 21.316, "lng": -157.8677, "city": "Jbphh" },
  "96861": { "lat": 21.3967, "lng": -157.8994, "city": "Camp H M Smith" },
  "96863": { "lat": 21.316, "lng": -157.8677, "city": "Mcbh Kaneohe Bay" },
  "96898": { "lat": 19.2836, "lng": 166.6419, "city": "Wake Island" }
}
