{
  "60001": { "lat": 42.3248, "lng": -88.4525, "city": "Alden" },
  "60002": { "lat": 42.4648, "lng": -88.1178, "city": "Antioch" },
  "60004": { "lat": 42.112, "lng": -87.9792, "city": "Arlington Heights" },
  "60005": { "lat": 42.0639, "lng": -87.9856, "city": "Arlington Heights" },
  "60006": { "lat": 42.0884, "lng": -87.9806, "city": "Arlington Heights" },
  "60007": { "lat": 42.0076, "lng": -87.9931, "city": "Elk Grove Village" },
  "60008": { "lat": 42.073, "lng": -88.0191, "city": "Rolling Meadows" },
  "60009": { "lat": 42.0039, "lng": -87.9703, "city": "Elk Grove Village" },
  "60010": { "lat": 42.1614, "lng": -88.1383, "city": "Barrington" },
  "60011": { "lat": 42.3228, "lng": -87.6101, "city": "Barrington" },
  "60012": { "lat": 42.2662, "lng": -88.3213, "city": "Crystal Lake" },
  "60013": { "lat": 42.2196, "lng": -88.2426, "city": "Cary" },
  "60014": { "lat": 42.2308, "lng": -88.3324, "city": "Crystal Lake" },
  "60015": { "lat": 42.1705, "lng": -87.859, "city": "Deerfield" },
  "60016": { "lat": 42.0467, "lng": -87.8859, "city": "Des Plaines" },
  "60017": { "lat": 42.0288, "lng": -87.8944, "city": "Des Plaines" },
  "60018": { "lat": 42.0155, "lng": -87.8687, "city": "Des Plaines" },
  "60019": { "lat": 42.0243, "lng": -87.9071, "city": "Des Plaines" },
  "60020": { "lat": 42.3937, "lng": -88.1648, "city": "Fox Lake" },
  "60021": { "lat": 42.1936, "lng": -88.2205, "city": "Fox River Grove" },
  "60022": { "lat": 42.1333, "lng": -87.7615, "city": "Glencoe" },
  "60025": { "lat": 42.0758, "lng": -87.8223, "city": "Glenview" },
  "60026": { "lat": 42.0698, "lng": -87.7878, "city": "Glenview" },
  "60029": { "lat": 42.058, "lng": -87.7916, "city": "Golf" },
  "60030": { "lat": 42.3524, "lng": -88.0545, "city": "Grayslake" },
  "60031": { "lat": 42.3669, "lng": -87.9452, "city": "Gurnee" },
  "60033": { "lat": 42.4227, "lng": -88.6048, "city": "Harvard" },
  "60034": { "lat": 42.4642, "lng": -88.4176, "city": "Hebron" },
  "60035": { "lat": 42.1794, "lng": -87.8059, "city": "Highland Park" },
  "60037": { "lat": 42.2097, "lng": -87.8056, "city": "Fort Sheridan" },
  "60038": { "lat": 42.098, "lng": -88.0141, "city": "Palatine" },
  "60039": { "lat": 42.3248, "lng": -88.4525, "city": "Crystal Lake" },
  "60040": { "lat": 42.2035, "lng": -87.8141, "city": "Highwood" },
  "60041": { "lat": 42.3631, "lng": -88.1587, "city": "Ingleside" },
  "60042": { "lat": 42.2742, "lng": -88.1926, "city": "Island Lake" },
  "60043": { "lat": 42.0884, "lng": -87.7165, "city": "Kenilworth" },
  "60044": { "lat": 42.282, "lng": -87.856, "city": "Lake Bluff" },
  "60045": { "lat": 42.2374, "lng": -87.8482, "city": "Lake Forest" },
  "60046": { "lat": 42.3813, "lng": -87.9991, "city": "Lake Villa" },
  "60047": { "lat": 42.2165, "lng": -88.0769, "city": "Lake Zurich" },
  "60048": { "lat": 42.281, "lng": -87.95, "city": "Libertyville" },
  "60050": { "lat": 42.3311, "lng": -88.2955, "city": "Mchenry" },
  "60051": { "lat": 42.3542, "lng": -88.2294, "city": "Mchenry" },
  "60053": { "lat": 42.0431, "lng": -87.7899, "city": "Morton Grove" },
  "60055": { "lat": 42.098, "lng": -88.0141, "city": "Palatine" },
  "60056": { "lat": 42.0624, "lng": -87.9377, "city": "Mount Prospect" },
  "60060": { "lat": 42.2636, "lng": -88.0048, "city": "Mundelein" },
  "60061": { "lat": 42.2288, "lng": -87.9719, "city": "Vernon Hills" },
  "60062": { "lat": 42.1254, "lng": -87.8465, "city": "Northbrook" },
  "60064": { "lat": 42.3247, "lng": -87.8564, "city": "North Chicago" },
  "60065": { "lat": 42.1275, "lng": -87.829, "city": "Northbrook" },
  "60067": { "lat": 42.1139, "lng": -88.0429, "city": "Palatine" },
  "60068": { "lat": 42.0122, "lng": -87.8417, "city": "Park Ridge" },
  "60069": { "lat": 42.1976, "lng": -87.9261, "city": "Lincolnshire" },
  "60070": { "lat": 42.1058, "lng": -87.9395, "city": "Prospect Heights" },
  "60071": { "lat": 42.4669, "lng": -88.29, "city": "Richmond" },
  "60072": { "lat": 42.4048, "lng": -88.3054, "city": "Ringwood" },
  "60073": { "lat": 42.3668, "lng": -88.0888, "city": "Round Lake" },
  "60074": { "lat": 42.1458, "lng": -88.023, "city": "Palatine" },
  "60075": { "lat": 42.4906, "lng": -87.9126, "city": "Russell" },
  "60076": { "lat": 42.0362, "lng": -87.7328, "city": "Skokie" },
  "60077": { "lat": 42.0345, "lng": -87.7541, "city": "Skokie" },
  "60078": { "lat": 42.1103, "lng": -88.0342, "city": "Palatine" },
  "60079": { "lat": 42.3636, "lng": -87.8448, "city": "Waukegan" },
  "60081": { "lat": 42.4413, "lng": -88.2237, "city": "Spring Grove" },
  "60082": { "lat": 42.1164, "lng": -87.8121, "city": "Techny" },
  "60083": { "lat": 42.446, "lng": -87.904, "city": "Wadsworth" },
  "60084": { "lat": 42.2636, "lng": -88.1333, "city": "Wauconda" },
  "60085": { "lat": 42.3542, "lng": -87.8651, "city": "Waukegan" },
  "60086": { "lat": 42.4333, "lng": -87.7766, "city": "North Chicago" },
  "60087": { "lat": 42.3989, "lng": -87.8554, "city": "Waukegan" },
  "60088": { "lat": 42.3032, "lng": -87.8642, "city": "Great Lakes" },
  "60089": { "lat": 42.1598, "lng": -87.9644, "city": "Buffalo Grove" },
  "60090": { "lat": 42.134, "lng": -87.9341, "city": "Wheeling" },
  "60091": { "lat": 42.0765, "lng": -87.7246, "city": "Wilmette" },
  "60093": { "lat": 42.1054, "lng": -87.7535, "city": "Winnetka" },
  "60094": { "lat": 42.1103, "lng": -88.0342, "city": "Palatine" },
  "60095": { "lat": 42.1103, "lng": -88.0342, "city": "Palatine" },
  "60096": { "lat": 42.4793, "lng": -87.8318, "city": "Winthrop Harbor" },
  "60097": { "lat": 42.3849, "lng": -88.3534, "city": "Wonder Lake" },
  "60098": { "lat": 42.3198, "lng": -88.4477, "city": "Woodstock" },
  "60099": { "lat": 42.4442, "lng": -87.8389, "city": "Zion" },
  "60101": { "lat": 41.9335, "lng": -88.0054, "city": "Addison" },
  "60102": { "lat": 42.1641, "lng": -88.3064, "city": "Algonquin" },
  "60103": { "lat": 41.9794, "lng": -88.2063, "city": "Bartlett" },
  "60104": { "lat": 41.8825, "lng": -87.8786, "city": "Bellwood" },
  "60105": { "lat": 41.955, "lng": -87.9401, "city": "Bensenville" },
  "60106": { "lat": 41.9501, "lng": -87.945, "city": "Bensenville" },
  "60107": { "lat": 42.0225, "lng": -88.169, "city": "Streamwood" },
  "60108": { "lat": 41.9483, "lng": -88.0782, "city": "Bloomingdale" },
  "60109": { "lat": 42.0458, "lng": -88.539, "city": "Burlington" },
  "60110": { "lat": 42.123, "lng": -88.2606, "city": "Carpentersville" },
  "60111": { "lat": 42.0086, "lng": -88.8306, "city": "Clare" },
  "60112": { "lat": 41.92, "lng": -88.6887, "city": "Cortland" },
  "60113": { "lat": 41.9312, "lng": -88.9566, "city": "Creston" },
  "60115": { "lat": 41.9008, "lng": -88.7548, "city": "Dekalb" },
  "60116": { "lat": 41.9125, "lng": -88.1348, "city": "Carol Stream" },
  "60117": { "lat": 41.8397, "lng": -88.0887, "city": "Bloomingdale" },
  "60118": { "lat": 42.0962, "lng": -88.2902, "city": "Dundee" },
  "60119": { "lat": 41.8824, "lng": -88.4611, "city": "Elburn" },
  "60120": { "lat": 42.0384, "lng": -88.2606, "city": "Elgin" },
  "60121": { "lat": 42.0372, "lng": -88.2812, "city": "Elgin" },
  "60122": { "lat": 42.0671, "lng": -88.305, "city": "Elgin" },
  "60123": { "lat": 42.0376, "lng": -88.3186, "city": "Elgin" },
  "60124": { "lat": 42.0293, "lng": -88.3747, "city": "Elgin" },
  "60126": { "lat": 41.8927, "lng": -87.941, "city": "Elmhurst" },
  "60128": { "lat": 41.8397, "lng": -88.0887, "city": "Carol Stream" },
  "60129": { "lat": 42.0225, "lng": -88.9439, "city": "Esmond" },
  "60130": { "lat": 41.8744, "lng": -87.8106, "city": "Forest Park" },
  "60131": { "lat": 41.9339, "lng": -87.8734, "city": "Franklin Park" },
  "60132": { "lat": 41.8397, "lng": -88.0887, "city": "Carol Stream" },
  "60133": { "lat": 41.9995, "lng": -88.1451, "city": "Hanover Park" },
  "60134": { "lat": 41.886, "lng": -88.311, "city": "Geneva" },
  "60135": { "lat": 42.0981, "lng": -88.6908, "city": "Genoa" },
  "60136": { "lat": 42.0984, "lng": -88.3691, "city": "Gilberts" },
  "60137": { "lat": 41.8661, "lng": -88.0648, "city": "Glen Ellyn" },
  "60138": { "lat": 41.8775, "lng": -88.067, "city": "Glen Ellyn" },
  "60139": { "lat": 41.9205, "lng": -88.0793, "city": "Glendale Heights" },
  "60140": { "lat": 42.0807, "lng": -88.517, "city": "Hampshire" },
  "60141": { "lat": 41.8623, "lng": -87.8355, "city": "Hines" },
  "60142": { "lat": 42.1756, "lng": -88.4268, "city": "Huntley" },
  "60143": { "lat": 41.972, "lng": -88.0202, "city": "Itasca" },
  "60144": { "lat": 41.8353, "lng": -88.522, "city": "Kaneville" },
  "60145": { "lat": 42.1057, "lng": -88.7695, "city": "Kingston" },
  "60146": { "lat": 42.1014, "lng": -88.8685, "city": "Kirkland" },
  "60147": { "lat": 41.937, "lng": -88.4202, "city": "Lafox" },
  "60148": { "lat": 41.8721, "lng": -88.016, "city": "Lombard" },
  "60150": { "lat": 41.9183, "lng": -88.8688, "city": "Malta" },
  "60151": { "lat": 41.9232, "lng": -88.5999, "city": "Maple Park" },
  "60152": { "lat": 42.2442, "lng": -88.6074, "city": "Marengo" },
  "60153": { "lat": 41.8793, "lng": -87.8433, "city": "Maywood" },
  "60154": { "lat": 41.8524, "lng": -87.8845, "city": "Westchester" },
  "60155": { "lat": 41.8577, "lng": -87.8562, "city": "Broadview" },
  "60156": { "lat": 42.1817, "lng": -88.3304, "city": "Lake In The Hills" },
  "60157": { "lat": 41.9814, "lng": -88.0512, "city": "Medinah" },
  "60159": { "lat": 42.0334, "lng": -88.0834, "city": "Schaumburg" },
  "60160": { "lat": 41.9003, "lng": -87.8581, "city": "Melrose Park" },
  "60161": { "lat": 41.9006, "lng": -87.8567, "city": "Melrose Park" },
  "60162": { "lat": 41.8725, "lng": -87.9016, "city": "Hillside" },
  "60163": { "lat": 41.8888, "lng": -87.909, "city": "Berkeley" },
  "60164": { "lat": 41.9214, "lng": -87.8924, "city": "Melrose Park" },
  "60165": { "lat": 41.903, "lng": -87.8811, "city": "Stone Park" },
  "60168": { "lat": 42.0334, "lng": -88.0834, "city": "Schaumburg" },
  "60169": { "lat": 42.0493, "lng": -88.1065, "city": "Hoffman Estates" },
  "60171": { "lat": 41.9279, "lng": -87.8387, "city": "River Grove" },
  "60172": { "lat": 41.9798, "lng": -88.0857, "city": "Roselle" },
  "60173": { "lat": 42.0581, "lng": -88.0482, "city": "Schaumburg" },
  "60174": { "lat": 41.9194, "lng": -88.307, "city": "Saint Charles" },
  "60175": { "lat": 41.9478, "lng": -88.3918, "city": "Saint Charles" },
  "60176": { "lat": 41.9563, "lng": -87.8692, "city": "Schiller Park" },
  "60177": { "lat": 41.9969, "lng": -88.2986, "city": "South Elgin" },
  "60178": { "lat": 41.9911, "lng": -88.6928, "city": "Sycamore" },
  "60179": { "lat": 42.0793, "lng": -88.2237, "city": "Hoffman Estates" },
  "60180": { "lat": 42.2103, "lng": -88.5283, "city": "Union" },
  "60181": { "lat": 41.8799, "lng": -87.9782, "city": "Villa Park" },
  "60183": { "lat": 41.937, "lng": -88.4202, "city": "Wasco" },
  "60184": { "lat": 41.9525, "lng": -88.2536, "city": "Wayne" },
  "60185": { "lat": 41.8886, "lng": -88.2022, "city": "West Chicago" },
  "60186": { "lat": 41.8848, "lng": -88.204, "city": "West Chicago" },
  "60187": { "lat": 41.8724, "lng": -88.1123, "city": "Wheaton" },
  "60188": { "lat": 41.9178, "lng": -88.137, "city": "Carol Stream" },
  "60189": { "lat": 41.8397, "lng": -88.0887, "city": "Wheaton" },
  "60190": { "lat": 41.8744, "lng": -88.1516, "city": "Winfield" },
  "60191": { "lat": 41.9602, "lng": -87.981, "city": "Wood Dale" },
  "60192": { "lat": 42.0428, "lng": -88.0798, "city": "Hoffman Estates" },
  "60193": { "lat": 42.0144, "lng": -88.0935, "city": "Schaumburg" },
  "60194": { "lat": 42.0289, "lng": -88.1167, "city": "Schaumburg" },
  "60195": { "lat": 42.0764, "lng": -88.1093, "city": "Schaumburg" },
  "60196": { "lat": 42.0564, "lng": -88.0725, "city": "Schaumburg" },
  "60197": { "lat": 41.9125, "lng": -88.1348, "city": "Carol Stream" },
  "60199": { "lat": 41.8397, "lng": -88.0887, "city": "Carol Stream" },
  "60201": { "lat": 42.0546, "lng": -87.6943, "city": "Evanston" },
  "60202": { "lat": 42.0302, "lng": -87.6865, "city": "Evanston" },
  "60203": { "lat": 42.0485, "lng": -87.7176, "city": "Evanston" },
  "60204": { "lat": 42.0411, "lng": -87.6901, "city": "Evanston" },
  "60208": { "lat": 42.0586, "lng": -87.6845, "city": "Evanston" },
  "60209": { "lat": 42.0497, "lng": -87.6794, "city": "Evanston" },
  "60301": { "lat": 41.8886, "lng": -87.7986, "city": "Oak Park" },
  "60302": { "lat": 41.8925, "lng": -87.7895, "city": "Oak Park" },
  "60303": { "lat": 41.885, "lng": -87.7845, "city": "Oak Park" },
  "60304": { "lat": 41.8725, "lng": -87.7877, "city": "Oak Park" },
  "60305": { "lat": 41.8951, "lng": -87.8159, "city": "River Forest" },
  "60399": { "lat": 41.9545, "lng": -87.9377, "city": "Wood Dale" },
  "60401": { "lat": 41.3444, "lng": -87.6115, "city": "Beecher" },
  "60402": { "lat": 41.8347, "lng": -87.7914, "city": "Berwyn" },
  "60403": { "lat": 41.5548, "lng": -88.0987, "city": "Crest Hill" },
  "60404": { "lat": 41.5076, "lng": -88.2169, "city": "Shorewood" },
  "60406": { "lat": 41.6582, "lng": -87.6795, "city": "Blue Island" },
  "60407": { "lat": 41.2288, "lng": -88.269, "city": "Braceville" },
  "60408": { "lat": 41.2657, "lng": -88.2231, "city": "Braidwood" },
  "60409": { "lat": 41.6153, "lng": -87.5483, "city": "Calumet City" },
  "60410": { "lat": 41.4347, "lng": -88.2138, "city": "Channahon" },
  "60411": { "lat": 41.5087, "lng": -87.5904, "city": "Chicago Heights" },
  "60412": { "lat": 41.5061, "lng": -87.6356, "city": "Chicago Heights" },
  "60415": { "lat": 41.7017, "lng": -87.7774, "city": "Chicago Ridge" },
  "60416": { "lat": 41.2908, "lng": -88.2823, "city": "Coal City" },
  "60417": { "lat": 41.439, "lng": -87.6027, "city": "Crete" },
  "60418": { "lat": 41.6446, "lng": -87.7415, "city": "Crestwood" },
  "60419": { "lat": 41.6257, "lng": -87.598, "city": "Dolton" },
  "60420": { "lat": 41.0887, "lng": -88.4159, "city": "Dwight" },
  "60421": { "lat": 41.426, "lng": -88.0864, "city": "Elwood" },
  "60422": { "lat": 41.5406, "lng": -87.6837, "city": "Flossmoor" },
  "60423": { "lat": 41.5094, "lng": -87.8248, "city": "Frankfort" },
  "60424": { "lat": 41.1775, "lng": -88.338, "city": "Gardner" },
  "60425": { "lat": 41.5467, "lng": -87.6126, "city": "Glenwood" },
  "60426": { "lat": 41.6103, "lng": -87.6534, "city": "Harvey" },
  "60428": { "lat": 41.5998, "lng": -87.6906, "city": "Markham" },
  "60429": { "lat": 41.5738, "lng": -87.6849, "city": "Hazel Crest" },
  "60430": { "lat": 41.5556, "lng": -87.6616, "city": "Homewood" },
  "60431": { "lat": 41.4712, "lng": -87.9391, "city": "Joliet" },
  "60432": { "lat": 41.5378, "lng": -88.0572, "city": "Joliet" },
  "60433": { "lat": 41.5119, "lng": -88.0569, "city": "Joliet" },
  "60434": { "lat": 41.5254, "lng": -88.0842, "city": "Joliet" },
  "60435": { "lat": 41.5454, "lng": -88.1299, "city": "Joliet" },
  "60436": { "lat": 41.4884, "lng": -88.1572, "city": "Joliet" },
  "60437": { "lat": 41.1631, "lng": -88.5535, "city": "Kinsman" },
  "60438": { "lat": 41.566, "lng": -87.5446, "city": "Lansing" },
  "60439": { "lat": 41.7074, "lng": -87.9756, "city": "Lemont" },
  "60440": { "lat": 41.6976, "lng": -88.0873, "city": "Bolingbrook" },
  "60441": { "lat": 41.593, "lng": -88.0507, "city": "Lockport" },
  "60442": { "lat": 41.4289, "lng": -87.9771, "city": "Manhattan" },
  "60443": { "lat": 41.5102, "lng": -87.7406, "city": "Matteson" },
  "60444": { "lat": 41.2264, "lng": -88.4217, "city": "Mazon" },
  "60445": { "lat": 41.635, "lng": -87.7362, "city": "Midlothian" },
  "60446": { "lat": 41.6404, "lng": -88.0696, "city": "Romeoville" },
  "60447": { "lat": 41.4615, "lng": -88.2786, "city": "Minooka" },
  "60448": { "lat": 41.5342, "lng": -87.8911, "city": "Mokena" },
  "60449": { "lat": 41.4191, "lng": -87.7748, "city": "Monee" },
  "60450": { "lat": 41.3672, "lng": -88.4178, "city": "Morris" },
  "60451": { "lat": 41.5067, "lng": -87.9631, "city": "New Lenox" },
  "60452": { "lat": 41.6077, "lng": -87.7542, "city": "Oak Forest" },
  "60453": { "lat": 41.7143, "lng": -87.7516, "city": "Oak Lawn" },
  "60454": { "lat": 41.8119, "lng": -87.6873, "city": "Oak Lawn" },
  "60455": { "lat": 41.7431, "lng": -87.8066, "city": "Bridgeview" },
  "60456": { "lat": 41.7311, "lng": -87.7315, "city": "Hometown" },
  "60457": { "lat": 41.7262, "lng": -87.8289, "city": "Hickory Hills" },
  "60458": { "lat": 41.7447, "lng": -87.8346, "city": "Justice" },
  "60459": { "lat": 41.7447, "lng": -87.7699, "city": "Burbank" },
  "60460": { "lat": 41.0238, "lng": -88.5156, "city": "Odell" },
  "60461": { "lat": 41.5134, "lng": -87.6742, "city": "Olympia Fields" },
  "60462": { "lat": 41.6194, "lng": -87.8423, "city": "Orland Park" },
  "60463": { "lat": 41.6621, "lng": -87.7927, "city": "Palos Heights" },
  "60464": { "lat": 41.6624, "lng": -87.8521, "city": "Palos Park" },
  "60465": { "lat": 41.7004, "lng": -87.8263, "city": "Palos Hills" },
  "60466": { "lat": 41.479, "lng": -87.6828, "city": "Park Forest" },
  "60467": { "lat": 41.6018, "lng": -87.8899, "city": "Orland Park" },
  "60468": { "lat": 41.3361, "lng": -87.7897, "city": "Peotone" },
  "60469": { "lat": 41.6277, "lng": -87.6872, "city": "Posen" },
  "60470": { "lat": 41.153, "lng": -88.6502, "city": "Ransom" },
  "60471": { "lat": 41.4819, "lng": -87.7238, "city": "Richton Park" },
  "60472": { "lat": 41.6423, "lng": -87.7089, "city": "Robbins" },
  "60473": { "lat": 41.5979, "lng": -87.5938, "city": "South Holland" },
  "60474": { "lat": 41.1728, "lng": -88.2767, "city": "South Wilmington" },
  "60475": { "lat": 41.4686, "lng": -87.6386, "city": "Steger" },
  "60476": { "lat": 41.5727, "lng": -87.6078, "city": "Thornton" },
  "60477": { "lat": 41.5825, "lng": -87.805, "city": "Tinley Park" },
  "60478": { "lat": 41.5637, "lng": -87.7247, "city": "Country Club Hills" },
  "60479": { "lat": 41.2501, "lng": -88.517, "city": "Verona" },
  "60480": { "lat": 41.7364, "lng": -87.8786, "city": "Willow Springs" },
  "60481": { "lat": 41.3078, "lng": -88.1467, "city": "Wilmington" },
  "60482": { "lat": 41.6895, "lng": -87.7863, "city": "Worth" },
  "60484": { "lat": 41.4418, "lng": -87.7101, "city": "University Park" },
  "60487": { "lat": 41.5636, "lng": -87.8342, "city": "Tinley Park" },
  "60490": { "lat": 41.679, "lng": -88.1403, "city": "Bolingbrook" },
  "60491": { "lat": 41.6028, "lng": -87.9599, "city": "Homer Glen" },
  "60499": { "lat": 41.8119, "lng": -87.6873, "city": "Bedford Park" },
  "60501": { "lat": 41.7801, "lng": -87.824, "city": "Summit Argo" },
  "60502": { "lat": 41.7845, "lng": -88.2616, "city": "Aurora" },
  "60503": { "lat": 41.7199, "lng": -88.2548, "city": "Aurora" },
  "60504": { "lat": 41.7523, "lng": -88.2453, "city": "Aurora" },
  "60505": { "lat": 41.7582, "lng": -88.2971, "city": "Aurora" },
  "60506": { "lat": 41.7664, "lng": -88.3446, "city": "Aurora" },
  "60507": { "lat": 41.7606, "lng": -88.3201, "city": "Aurora" },
  "60510": { "lat": 41.8482, "lng": -88.3098, "city": "Batavia" },
  "60511": { "lat": 41.7593, "lng": -88.5376, "city": "Big Rock" },
  "60512": { "lat": 41.7016, "lng": -88.4398, "city": "Bristol" },
  "60513": { "lat": 41.8217, "lng": -87.8492, "city": "Brookfield" },
  "60514": { "lat": 41.7965, "lng": -87.9569, "city": "Clarendon Hills" },
  "60515": { "lat": 41.8034, "lng": -88.0138, "city": "Downers Grove" },
  "60516": { "lat": 41.7602, "lng": -88.0159, "city": "Downers Grove" },
  "60517": { "lat": 41.7518, "lng": -88.0489, "city": "Woodridge" },
  "60518": { "lat": 41.5859, "lng": -88.9103, "city": "Earlville" },
  "60519": { "lat": 41.7775, "lng": -88.2428, "city": "Eola" },
  "60520": { "lat": 41.7691, "lng": -88.6448, "city": "Hinckley" },
  "60521": { "lat": 41.8001, "lng": -87.9287, "city": "Hinsdale" },
  "60522": { "lat": 41.8397, "lng": -88.0887, "city": "Hinsdale" },
  "60523": { "lat": 41.8371, "lng": -87.9638, "city": "Oak Brook" },
  "60525": { "lat": 41.7842, "lng": -87.8689, "city": "La Grange" },
  "60526": { "lat": 41.8318, "lng": -87.874, "city": "La Grange Park" },
  "60527": { "lat": 41.7447, "lng": -87.9334, "city": "Willowbrook" },
  "60530": { "lat": 41.7864, "lng": -88.9714, "city": "Lee" },
  "60531": { "lat": 41.6066, "lng": -88.7716, "city": "Leland" },
  "60532": { "lat": 41.7862, "lng": -88.0879, "city": "Lisle" },
  "60534": { "lat": 41.813, "lng": -87.8236, "city": "Lyons" },
  "60536": { "lat": 41.5984, "lng": -88.5529, "city": "Millbrook" },
  "60537": { "lat": 41.5614, "lng": -88.5975, "city": "Millington" },
  "60538": { "lat": 41.7177, "lng": -88.332, "city": "Montgomery" },
  "60539": { "lat": 41.8241, "lng": -88.3315, "city": "Mooseheart" },
  "60540": { "lat": 41.7662, "lng": -88.141, "city": "Naperville" },
  "60541": { "lat": 41.5267, "lng": -88.527, "city": "Newark" },
  "60542": { "lat": 41.8089, "lng": -88.3274, "city": "North Aurora" },
  "60543": { "lat": 41.6849, "lng": -88.3453, "city": "Oswego" },
  "60544": { "lat": 41.6009, "lng": -88.1994, "city": "Plainfield" },
  "60545": { "lat": 41.667, "lng": -88.5384, "city": "Plano" },
  "60546": { "lat": 41.8379, "lng": -87.8213, "city": "Riverside" },
  "60548": { "lat": 41.6353, "lng": -88.6393, "city": "Sandwich" },
  "60549": { "lat": 41.4995, "lng": -88.7509, "city": "Serena" },
  "60550": { "lat": 41.7638, "lng": -88.8752, "city": "Shabbona" },
  "60551": { "lat": 41.5164, "lng": -88.6706, "city": "Sheridan" },
  "60552": { "lat": 41.6383, "lng": -88.6816, "city": "Somonauk" },
  "60553": { "lat": 41.8475, "lng": -89.0151, "city": "Steward" },
  "60554": { "lat": 41.7741, "lng": -88.4397, "city": "Sugar Grove" },
  "60555": { "lat": 41.828, "lng": -88.1921, "city": "Warrenville" },
  "60556": { "lat": 41.7504, "lng": -88.7754, "city": "Waterman" },
  "60557": { "lat": 41.4409, "lng": -88.7703, "city": "Wedron" },
  "60558": { "lat": 41.8049, "lng": -87.8995, "city": "Western Springs" },
  "60559": { "lat": 41.7728, "lng": -87.9757, "city": "Westmont" },
  "60560": { "lat": 41.6387, "lng": -88.4438, "city": "Yorkville" },
  "60561": { "lat": 41.7434, "lng": -87.9805, "city": "Darien" },
  "60563": { "lat": 41.7895, "lng": -88.169, "city": "Naperville" },
  "60564": { "lat": 41.704, "lng": -88.1952, "city": "Naperville" },
  "60565": { "lat": 41.7328, "lng": -88.1282, "city": "Naperville" },
  "60566": { "lat": 41.8397, "lng": -88.0887, "city": "Naperville" },
  "60567": { "lat": 41.7859, "lng": -88.1473, "city": "Naperville" },
  "60568": { "lat": 41.7606, "lng": -88.3201, "city": "Aurora" },
  "60569": { "lat": 41.8122, "lng": -88.2172, "city": "Aurora" },
  "60572": { "lat": 41.7606, "lng": -88.3201, "city": "Aurora" },
  "60585": { "lat": 41.6558, "lng": -88.2203, "city": "Plainfield" },
  "60586": { "lat": 41.5642, "lng": -88.2178, "city": "Plainfield" },
  "60598": { "lat": 41.8397, "lng": -88.0887, "city": "Aurora" },
  "60599": { "lat": 41.8397, "lng": -88.0887, "city": "Fox Valley" },
  "60601": { "lat": 41.8858, "lng": -87.6181, "city": "Chicago" },
  "60602": { "lat": 41.8829, "lng": -87.6321, "city": "Chicago" },
  "60603": { "lat": 41.8798, "lng": -87.6285, "city": "Chicago" },
  "60604": { "lat": 41.8785, "lng": -87.633, "city": "Chicago" },
  "60605": { "lat": 41.8713, "lng": -87.6277, "city": "Chicago" },
  "60606": { "lat": 41.8868, "lng": -87.6386, "city": "Chicago" },
  "60607": { "lat": 41.8721, "lng": -87.6578, "city": "Chicago" },
  "60608": { "lat": 41.8515, "lng": -87.6694, "city": "Chicago" },
  "60609": { "lat": 41.8097, "lng": -87.6533, "city": "Chicago" },
  "60610": { "lat": 41.9033, "lng": -87.6336, "city": "Chicago" },
  "60611": { "lat": 41.8971, "lng": -87.6223, "city": "Chicago" },
  "60612": { "lat": 41.8805, "lng": -87.6873, "city": "Chicago" },
  "60613": { "lat": 41.9543, "lng": -87.6575, "city": "Chicago" },
  "60614": { "lat": 41.9229, "lng": -87.6483, "city": "Chicago" },
  "60615": { "lat": 41.8022, "lng": -87.6006, "city": "Chicago" },
  "60616": { "lat": 41.8426, "lng": -87.6306, "city": "Chicago" },
  "60617": { "lat": 41.7257, "lng": -87.556, "city": "Chicago" },
  "60618": { "lat": 41.9464, "lng": -87.7042, "city": "Chicago" },
  "60619": { "lat": 41.7458, "lng": -87.6054, "city": "Chicago" },
  "60620": { "lat": 41.7411, "lng": -87.6543, "city": "Chicago" },
  "60621": { "lat": 41.775, "lng": -87.6421, "city": "Chicago" },
  "60622": { "lat": 41.9019, "lng": -87.6779, "city": "Chicago" },
  "60623": { "lat": 41.849, "lng": -87.7157, "city": "Chicago" },
  "60624": { "lat": 41.8804, "lng": -87.7223, "city": "Chicago" },
  "60625": { "lat": 41.9703, "lng": -87.7042, "city": "Chicago" },
  "60626": { "lat": 42.0095, "lng": -87.6689, "city": "Chicago" },
  "60628": { "lat": 41.6934, "lng": -87.6243, "city": "Chicago" },
  "60629": { "lat": 41.7781, "lng": -87.7069, "city": "Chicago" },
  "60630": { "lat": 41.9699, "lng": -87.7603, "city": "Chicago" },
  "60631": { "lat": 41.9951, "lng": -87.8082, "city": "Chicago" },
  "60632": { "lat": 41.8093, "lng": -87.7052, "city": "Chicago" },
  "60633": { "lat": 41.6642, "lng": -87.5612, "city": "Chicago" },
  "60634": { "lat": 41.9463, "lng": -87.8061, "city": "Chicago" },
  "60636": { "lat": 41.776, "lng": -87.6674, "city": "Chicago" },
  "60637": { "lat": 41.7813, "lng": -87.6051, "city": "Chicago" },
  "60638": { "lat": 41.7814, "lng": -87.7705, "city": "Chicago" },
  "60639": { "lat": 41.9202, "lng": -87.7535, "city": "Chicago" },
  "60640": { "lat": 41.9719, "lng": -87.6624, "city": "Chicago" },
  "60641": { "lat": 41.9453, "lng": -87.7474, "city": "Chicago" },
  "60642": { "lat": 41.9008, "lng": -87.6528, "city": "Chicago" },
  "60643": { "lat": 41.6996, "lng": -87.6628, "city": "Chicago" },
  "60644": { "lat": 41.8829, "lng": -87.7582, "city": "Chicago" },
  "60645": { "lat": 42.0086, "lng": -87.6947, "city": "Chicago" },
  "60646": { "lat": 41.993, "lng": -87.7596, "city": "Chicago" },
  "60647": { "lat": 41.9209, "lng": -87.7043, "city": "Chicago" },
  "60649": { "lat": 41.762, "lng": -87.5703, "city": "Chicago" },
  "60651": { "lat": 41.9025, "lng": -87.7393, "city": "Chicago" },
  "60652": { "lat": 41.7454, "lng": -87.7135, "city": "Chicago" },
  "60653": { "lat": 41.8196, "lng": -87.6126, "city": "Chicago" },
  "60654": { "lat": 41.8923, "lng": -87.6373, "city": "Chicago" },
  "60655": { "lat": 41.6948, "lng": -87.7038, "city": "Chicago" },
  "60656": { "lat": 41.9735, "lng": -87.8658, "city": "Chicago" },
  "60657": { "lat": 41.9399, "lng": -87.6528, "city": "Chicago" },
  "60659": { "lat": 41.9972, "lng": -87.7166, "city": "Chicago" },
  "60660": { "lat": 41.9909, "lng": -87.6629, "city": "Chicago" },
  "60661": { "lat": 41.8814, "lng": -87.643, "city": "Chicago" },
  "60664": { "lat": 41.8119, "lng": -87.6873, "city": "Chicago" },
  "60666": { "lat": 41.85, "lng": -87.6501, "city": "Chicago" },
  "60668": { "lat": 41.8119, "lng": -87.6873, "city": "Chicago" },
  "60669": { "lat": 41.8119, "lng": -87.6873, "city": "Chicago" },
  "60670": { "lat": 41.8119, "lng": -87.6873, "city": "Chicago" },
  "60673": { "lat": 41.8119, "lng": -87.6873, "city": "Chicago" },
  "60674": { "lat": 41.8119, "lng": -87.6873, "city": "Chicago" },
  "60675": { "lat": 41.8119, "lng": -87.6873, "city": "Chicago" },
  "60677": { "lat": 41.8119, "lng": -87.6873, "city": "Chicago" },
  "60678": { "lat": 41.8119, "lng": -87.6873, "city": "Chicago" },
  "60680": { "lat": 41.8119, "lng": -87.6873, "city": "Chicago" },
  "60681": { "lat": 41.8119, "lng": -87.6873, "city": "Chicago" },
  "60682": { "lat": 41.837, "lng": -87.685, "city": "Chicago" },
  "60684": { "lat": 41.8119, "lng": -87.6873, "city": "Chicago" },
  "60685": { "lat": 41.8119, "lng": -87.6873, "city": "Chicago" },
  "60686": { "lat": 41.8756, "lng": -87.6378, "city": "Chicago" },
  "60687": { "lat": 41.8119, "lng": -87.6873, "city": "Chicago" },
  "60688": { "lat": 41.8724, "lng": -87.6688, "city": "Chicago" },
  "60689": { "lat": 41.8745, "lng": -87.6353, "city": "Chicago" },
  "60690": { "lat": 41.8119, "lng": -87.6873, "city": "Chicago" },
  "60691": { "lat": 41.8119, "lng": -87.6873, "city": "Chicago" },
  "60693": { "lat": 41.85, "lng": -87.6501, "city": "Chicago" },
  "60694": { "lat": 41.8119, "lng": -87.6873, "city": "Chicago" },
  "60695": { "lat": 41.8839, "lng": -87.6317, "city": "Chicago" },
  "60696": { "lat": 41.8684, "lng": -87.6649, "city": "Chicago" },
  "60697": { "lat": 41.8119, "lng": -87.6873, "city": "Chicago" },
  "60699": { "lat": 41.8119, "lng": -87.6873, "city": "Chicago" },
  "60701": { "lat": 41.8119, "lng": -87.6873, "city": "Chicago" },
  "60706": { "lat": 41.9643, "lng": -87.8162, "city": "Harwood Heights" },
  "60707": { "lat": 41.9232, "lng": -87.8185, "city": "Elmwood Park" },
  "60712": { "lat": 42.008, "lng": -87.7361, "city": "Lincolnwood" },
  "60714": { "lat": 42.0312, "lng": -87.8112, "city": "Niles" },
  "60803": { "lat": 41.6721, "lng": -87.7357, "city": "Alsip" },
  "60804": { "lat": 41.8378, "lng": -87.7602, "city": "Cicero" },
  "60805": { "lat": 41.722, "lng": -87.7024, "city": "Evergreen Park" },
  "60827": { "lat": 41.6496, "lng": -87.6301, "city": "Riverdale" },
  "60901": { "lat": 41.1166, "lng": -87.8696, "city": "Kankakee" },
  "60910": { "lat": 41.0798, "lng": -87.8114, "city": "Aroma Park" },
  "60911": { "lat": 40.8844, "lng": -87.9411, "city": "Ashkum" },
  "60912": { "lat": 40.9672, "lng": -87.6217, "city": "Beaverville" },
  "60913": { "lat": 41.1573, "lng": -88.0619, "city": "Bonfield" },
  "60914": { "lat": 41.1661, "lng": -87.879, "city": "Bourbonnais" },
  "60915": { "lat": 41.1454, "lng": -87.8601, "city": "Bradley" },
  "60917": { "lat": 41.0433, "lng": -88.1772, "city": "Buckingham" },
  "60918": { "lat": 40.6018, "lng": -88.0361, "city": "Buckley" },
  "60919": { "lat": 40.9819, "lng": -88.1921, "city": "Cabery" },
  "60920": { "lat": 41.0248, "lng": -88.3072, "city": "Campus" },
  "60921": { "lat": 40.7484, "lng": -88.2937, "city": "Chatsworth" },
  "60922": { "lat": 41.0254, "lng": -87.8959, "city": "Chebanse" },
  "60924": { "lat": 40.5858, "lng": -87.8759, "city": "Cissna Park" },
  "60926": { "lat": 40.5676, "lng": -87.804, "city": "Claytonville" },
  "60927": { "lat": 40.9394, "lng": -87.9202, "city": "Clifton" },
  "60928": { "lat": 40.7417, "lng": -87.849, "city": "Crescent City" },
  "60929": { "lat": 40.8781, "lng": -88.2765, "city": "Cullom" },
  "60930": { "lat": 40.8244, "lng": -87.9868, "city": "Danforth" },
  "60931": { "lat": 40.8891, "lng": -87.6046, "city": "Donovan" },
  "60932": { "lat": 40.4633, "lng": -87.8056, "city": "East Lynn" },
  "60933": { "lat": 40.4648, "lng": -88.2712, "city": "Elliott" },
  "60934": { "lat": 40.9692, "lng": -88.3589, "city": "Emington" },
  "60935": { "lat": 41.1676, "lng": -88.1845, "city": "Essex" },
  "60936": { "lat": 40.4659, "lng": -88.3609, "city": "Gibson City" },
  "60938": { "lat": 40.768, "lng": -87.9933, "city": "Gilman" },
  "60939": { "lat": 40.5673, "lng": -87.7845, "city": "Goodwine" },
  "60940": { "lat": 41.2477, "lng": -87.648, "city": "Grant Park" },
  "60941": { "lat": 41.0464, "lng": -88.0858, "city": "Herscher" },
  "60942": { "lat": 40.4639, "lng": -87.6662, "city": "Hoopeston" },
  "60944": { "lat": 41.0634, "lng": -87.625, "city": "Hopkins Park" },
  "60945": { "lat": 40.8269, "lng": -87.5847, "city": "Iroquois" },
  "60946": { "lat": 40.9126, "lng": -88.209, "city": "Kempton" },
  "60948": { "lat": 40.5241, "lng": -88.0927, "city": "Loda" },
  "60949": { "lat": 40.3747, "lng": -88.138, "city": "Ludlow" },
  "60950": { "lat": 41.2514, "lng": -87.8468, "city": "Manteno" },
  "60951": { "lat": 40.9052, "lng": -87.7443, "city": "Martinton" },
  "60952": { "lat": 40.5714, "lng": -88.2551, "city": "Melvin" },
  "60953": { "lat": 40.6293, "lng": -87.6853, "city": "Milford" },
  "60954": { "lat": 41.1593, "lng": -87.6575, "city": "Momence" },
  "60955": { "lat": 40.712, "lng": -87.9958, "city": "Onarga" },
  "60956": { "lat": 40.967, "lng": -87.7161, "city": "Papineau" },
  "60957": { "lat": 40.4565, "lng": -88.099, "city": "Paxton" },
  "60958": { "lat": 41.0646, "lng": -87.5917, "city": "Pembroke Township" },
  "60959": { "lat": 40.7556, "lng": -88.1873, "city": "Piper City" },
  "60960": { "lat": 40.4559, "lng": -87.8884, "city": "Rankin" },
  "60961": { "lat": 41.1005, "lng": -88.2089, "city": "Reddick" },
  "60962": { "lat": 40.6193, "lng": -88.1804, "city": "Roberts" },
  "60963": { "lat": 40.3625, "lng": -87.6692, "city": "Rossville" },
  "60964": { "lat": 41.0487, "lng": -87.6564, "city": "Saint Anne" },
  "60966": { "lat": 40.7803, "lng": -87.5736, "city": "Sheldon" },
  "60967": { "lat": 40.6145, "lng": -87.5928, "city": "Stockland" },
  "60968": { "lat": 40.684, "lng": -88.0999, "city": "Thawville" },
  "60969": { "lat": 41.1088, "lng": -88.1465, "city": "Union Hill" },
  "60970": { "lat": 40.7734, "lng": -87.7309, "city": "Watseka" },
  "60973": { "lat": 40.5339, "lng": -87.6561, "city": "Wellington" },
  "60974": { "lat": 40.7151, "lng": -87.7307, "city": "Woodland" },
  "61001": { "lat": 42.4714, "lng": -90.1201, "city": "Apple River" },
  "61006": { "lat": 41.8643, "lng": -89.2086, "city": "Ashton" },
  "61007": { "lat": 42.1905, "lng": -89.5939, "city": "Baileyville" },
  "61008": { "lat": 42.2595, "lng": -88.8509, "city": "Belvidere" },
  "61010": { "lat": 42.1292, "lng": -89.2659, "city": "Byron" },
  "61011": { "lat": 42.3835, "lng": -88.9185, "city": "Caledonia" },
  "61012": { "lat": 42.4087, "lng": -88.7465, "city": "Capron" },
  "61013": { "lat": 42.3761, "lng": -89.6365, "city": "Cedarville" },
  "61014": { "lat": 41.9962, "lng": -89.8963, "city": "Chadwick" },
  "61015": { "lat": 41.9933, "lng": -89.2117, "city": "Chana" },
  "61016": { "lat": 42.2206, "lng": -88.9619, "city": "Cherry Valley" },
  "61018": { "lat": 42.4031, "lng": -89.5468, "city": "Dakota" },
  "61019": { "lat": 42.4422, "lng": -89.4067, "city": "Davis" },
  "61020": { "lat": 42.0979, "lng": -89.0838, "city": "Davis Junction" },
  "61021": { "lat": 41.8478, "lng": -89.4893, "city": "Dixon" },
  "61024": { "lat": 42.4337, "lng": -89.3094, "city": "Durand" },
  "61025": { "lat": 42.4875, "lng": -90.6046, "city": "East Dubuque" },
  "61027": { "lat": 42.332, "lng": -89.7612, "city": "Eleroy" },
  "61028": { "lat": 42.3089, "lng": -90.1986, "city": "Elizabeth" },
  "61030": { "lat": 42.1229, "lng": -89.5831, "city": "Forreston" },
  "61031": { "lat": 41.858, "lng": -89.3171, "city": "Franklin Grove" },
  "61032": { "lat": 42.2991, "lng": -89.6345, "city": "Freeport" },
  "61036": { "lat": 42.4182, "lng": -90.4195, "city": "Galena" },
  "61037": { "lat": 41.7865, "lng": -89.761, "city": "Galt" },
  "61038": { "lat": 42.251, "lng": -88.7437, "city": "Garden Prairie" },
  "61039": { "lat": 42.2176, "lng": -89.4712, "city": "German Valley" },
  "61041": { "lat": 42.2594, "lng": -90.2897, "city": "Hanover" },
  "61042": { "lat": 41.6973, "lng": -89.5695, "city": "Harmon" },
  "61043": { "lat": 42.0647, "lng": -89.0957, "city": "Holcomb" },
  "61044": { "lat": 42.3155, "lng": -89.9195, "city": "Kent" },
  "61046": { "lat": 42.0935, "lng": -89.8247, "city": "Lanark" },
  "61047": { "lat": 42.1532, "lng": -89.3959, "city": "Leaf River" },
  "61048": { "lat": 42.3791, "lng": -89.8253, "city": "Lena" },
  "61049": { "lat": 42.0507, "lng": -89.034, "city": "Lindenwood" },
  "61050": { "lat": 42.4281, "lng": -89.7643, "city": "Mc Connell" },
  "61051": { "lat": 41.9674, "lng": -89.7801, "city": "Milledgeville" },
  "61052": { "lat": 42.105, "lng": -89.0169, "city": "Monroe Center" },
  "61053": { "lat": 42.1053, "lng": -89.9845, "city": "Mount Carroll" },
  "61054": { "lat": 42.0479, "lng": -89.4346, "city": "Mount Morris" },
  "61057": { "lat": 41.8316, "lng": -89.3896, "city": "Nachusa" },
  "61059": { "lat": 42.4558, "lng": -89.9454, "city": "Nora" },
  "61060": { "lat": 42.4728, "lng": -89.6448, "city": "Orangeville" },
  "61061": { "lat": 42.0095, "lng": -89.3444, "city": "Oregon" },
  "61062": { "lat": 42.261, "lng": -89.8393, "city": "Pearl City" },
  "61063": { "lat": 42.3051, "lng": -89.3472, "city": "Pecatonica" },
  "61064": { "lat": 41.989, "lng": -89.5984, "city": "Polo" },
  "61065": { "lat": 42.3594, "lng": -88.8428, "city": "Poplar Grove" },
  "61067": { "lat": 42.2996, "lng": -89.4627, "city": "Ridott" },
  "61068": { "lat": 41.9282, "lng": -89.071, "city": "Rochelle" },
  "61070": { "lat": 42.4103, "lng": -89.4759, "city": "Rock City" },
  "61071": { "lat": 41.7665, "lng": -89.6925, "city": "Rock Falls" },
  "61072": { "lat": 42.4544, "lng": -89.0887, "city": "Rockton" },
  "61073": { "lat": 42.4217, "lng": -88.9943, "city": "Roscoe" },
  "61074": { "lat": 42.0956, "lng": -90.1401, "city": "Savanna" },
  "61075": { "lat": 42.4715, "lng": -90.258, "city": "Scales Mound" },
  "61077": { "lat": 42.2368, "lng": -89.358, "city": "Seward" },
  "61078": { "lat": 42.161, "lng": -89.7481, "city": "Shannon" },
  "61079": { "lat": 42.4445, "lng": -89.1976, "city": "Shirland" },
  "61080": { "lat": 42.4837, "lng": -89.0298, "city": "South Beloit" },
  "61081": { "lat": 41.8055, "lng": -89.7054, "city": "Sterling" },
  "61084": { "lat": 42.1183, "lng": -89.1898, "city": "Stillman Valley" },
  "61085": { "lat": 42.3492, "lng": -90.0202, "city": "Stockton" },
  "61087": { "lat": 42.489, "lng": -89.986, "city": "Warren" },
  "61088": { "lat": 42.2727, "lng": -89.2373, "city": "Winnebago" },
  "61089": { "lat": 42.4838, "lng": -89.806, "city": "Winslow" },
  "61091": { "lat": 41.9034, "lng": -89.5409, "city": "Woosung" },
  "61101": { "lat": 42.2922, "lng": -89.1161, "city": "Rockford" },
  "61102": { "lat": 42.2547, "lng": -89.1247, "city": "Rockford" },
  "61103": { "lat": 42.301, "lng": -89.0833, "city": "Rockford" },
  "61104": { "lat": 42.2554, "lng": -89.0768, "city": "Rockford" },
  "61105": { "lat": 42.2711, "lng": -89.094, "city": "Rockford" },
  "61106": { "lat": 42.3254, "lng": -89.1705, "city": "Rockford" },
  "61107": { "lat": 42.2786, "lng": -89.0361, "city": "Rockford" },
  "61108": { "lat": 42.2514, "lng": -89.0235, "city": "Rockford" },
  "61109": { "lat": 42.2166, "lng": -89.0512, "city": "Rockford" },
  "61110": { "lat": 42.3254, "lng": -89.1705, "city": "Rockford" },
  "61111": { "lat": 42.3295, "lng": -89.0335, "city": "Loves Park" },
  "61112": { "lat": 42.2456, "lng": -88.9704, "city": "Rockford" },
  "61114": { "lat": 42.3185, "lng": -88.9972, "city": "Rockford" },
  "61115": { "lat": 42.3545, "lng": -89.0397, "city": "Machesney Park" },
  "61125": { "lat": 42.3254, "lng": -89.1705, "city": "Rockford" },
  "61126": { "lat": 42.3254, "lng": -89.1705, "city": "Rockford" },
  "61130": { "lat": 42.3254, "lng": -89.1705, "city": "Loves Park" },
  "61131": { "lat": 42.3254, "lng": -89.1705, "city": "Loves Park" },
  "61132": { "lat": 42.3254, "lng": -89.1705, "city": "Loves Park" },
  "61201": { "lat": 41.4913, "lng": -90.5648, "city": "Rock Island" },
  "61204": { "lat": 41.5549, "lng": -90.616, "city": "Rock Island" },
  "61230": { "lat": 41.7659, "lng": -90.2081, "city": "Albany" },
  "61231": { "lat": 41.2008, "lng": -90.7416, "city": "Aledo" },
  "61232": { "lat": 41.4392, "lng": -90.7176, "city": "Andalusia" },
  "61233": { "lat": 41.2954, "lng": -90.2905, "city": "Andover" },
  "61234": { "lat": 41.398, "lng": -89.9129, "city": "Annawan" },
  "61235": { "lat": 41.4162, "lng": -90.0225, "city": "Atkinson" },
  "61236": { "lat": 41.5147, "lng": -90.3577, "city": "Barstow" },
  "61237": { "lat": 41.3368, "lng": -90.8522, "city": "Buffalo Prairie" },
  "61238": { "lat": 41.3114, "lng": -90.1805, "city": "Cambridge" },
  "61239": { "lat": 41.4948, "lng": -90.3907, "city": "Carbon Cliff" },
  "61240": { "lat": 41.4351, "lng": -90.4652, "city": "Coal Valley" },
  "61241": { "lat": 41.4885, "lng": -90.321, "city": "Colona" },
  "61242": { "lat": 41.6928, "lng": -90.3071, "city": "Cordova" },
  "61243": { "lat": 41.6316, "lng": -89.6972, "city": "Deer Grove" },
  "61244": { "lat": 41.5118, "lng": -90.4321, "city": "East Moline" },
  "61250": { "lat": 41.656, "lng": -90.0843, "city": "Erie" },
  "61251": { "lat": 41.7285, "lng": -90.0457, "city": "Fenton" },
  "61252": { "lat": 41.8522, "lng": -90.1507, "city": "Fulton" },
  "61254": { "lat": 41.4688, "lng": -90.1711, "city": "Geneseo" },
  "61256": { "lat": 41.5559, "lng": -90.4093, "city": "Hampton" },
  "61257": { "lat": 41.5929, "lng": -90.2263, "city": "Hillsdale" },
  "61258": { "lat": 41.522, "lng": -89.9122, "city": "Hooppole" },
  "61259": { "lat": 41.3892, "lng": -90.8925, "city": "Illinois City" },
  "61260": { "lat": 41.2262, "lng": -90.8518, "city": "Joy" },
  "61261": { "lat": 41.7199, "lng": -89.9169, "city": "Lyndon" },
  "61262": { "lat": 41.2888, "lng": -90.3304, "city": "Lynn Center" },
  "61263": { "lat": 41.2599, "lng": -90.6128, "city": "Matherville" },
  "61264": { "lat": 41.4262, "lng": -90.5739, "city": "Milan" },
  "61265": { "lat": 41.4906, "lng": -90.498, "city": "Moline" },
  "61266": { "lat": 41.5067, "lng": -90.5151, "city": "Moline" },
  "61270": { "lat": 41.8167, "lng": -89.969, "city": "Morrison" },
  "61272": { "lat": 41.2153, "lng": -90.9879, "city": "New Boston" },
  "61273": { "lat": 41.3634, "lng": -90.3849, "city": "Orion" },
  "61274": { "lat": 41.3637, "lng": -90.2681, "city": "Osco" },
  "61275": { "lat": 41.6013, "lng": -90.3263, "city": "Port Byron" },
  "61276": { "lat": 41.2996, "lng": -90.5866, "city": "Preemption" },
  "61277": { "lat": 41.6312, "lng": -89.9467, "city": "Prophetstown" },
  "61278": { "lat": 41.5817, "lng": -90.3435, "city": "Rapids City" },
  "61279": { "lat": 41.3277, "lng": -90.6384, "city": "Reynolds" },
  "61281": { "lat": 41.3027, "lng": -90.4939, "city": "Sherrard" },
  "61282": { "lat": 41.5007, "lng": -90.4126, "city": "Silvis" },
  "61283": { "lat": 41.6522, "lng": -89.7948, "city": "Tampico" },
  "61284": { "lat": 41.3828, "lng": -90.734, "city": "Taylor Ridge" },
  "61285": { "lat": 41.9816, "lng": -90.0844, "city": "Thomson" },
  "61299": { "lat": 41.5203, "lng": -90.5416, "city": "Rock Island" },
  "61301": { "lat": 41.3442, "lng": -89.0955, "city": "La Salle" },
  "61310": { "lat": 41.7042, "lng": -89.3472, "city": "Amboy" },
  "61311": { "lat": 41.0426, "lng": -88.8642, "city": "Ancona" },
  "61312": { "lat": 41.4437, "lng": -89.2219, "city": "Arlington" },
  "61313": { "lat": 41.0719, "lng": -88.6498, "city": "Blackstone" },
  "61314": { "lat": 41.314, "lng": -89.6795, "city": "Buda" },
  "61315": { "lat": 41.2894, "lng": -89.3686, "city": "Bureau" },
  "61316": { "lat": 41.2617, "lng": -89.1237, "city": "Cedar Point" },
  "61317": { "lat": 41.4264, "lng": -89.2126, "city": "Cherry" },
  "61318": { "lat": 41.685, "lng": -89.0877, "city": "Compton" },
  "61319": { "lat": 41.031, "lng": -88.7668, "city": "Cornell" },
  "61320": { "lat": 41.3547, "lng": -89.1705, "city": "Dalzell" },
  "61321": { "lat": 40.9547, "lng": -88.9628, "city": "Dana" },
  "61322": { "lat": 41.3092, "lng": -89.3252, "city": "Depue" },
  "61323": { "lat": 41.4362, "lng": -89.396, "city": "Dover" },
  "61324": { "lat": 41.7711, "lng": -89.4123, "city": "Eldena" },
  "61325": { "lat": 41.2386, "lng": -88.8168, "city": "Grand Ridge" },
  "61326": { "lat": 41.2642, "lng": -89.225, "city": "Granville" },
  "61327": { "lat": 41.2352, "lng": -89.3218, "city": "Hennepin" },
  "61328": { "lat": 41.505, "lng": -89.4634, "city": "Kasbeer" },
  "61329": { "lat": 41.3825, "lng": -89.219, "city": "Ladd" },
  "61330": { "lat": 41.5376, "lng": -89.297, "city": "La Moille" },
  "61331": { "lat": 41.7488, "lng": -89.2827, "city": "Lee Center" },
  "61332": { "lat": 41.1895, "lng": -88.9806, "city": "Leonore" },
  "61333": { "lat": 40.9896, "lng": -88.8811, "city": "Long Point" },
  "61334": { "lat": 41.145, "lng": -89.075, "city": "Lostant" },
  "61335": { "lat": 41.173, "lng": -89.2187, "city": "Mc Nabb" },
  "61336": { "lat": 41.1164, "lng": -89.227, "city": "Magnolia" },
  "61337": { "lat": 41.4245, "lng": -89.3693, "city": "Malden" },
  "61338": { "lat": 41.4555, "lng": -89.6697, "city": "Manlius" },
  "61340": { "lat": 41.266, "lng": -89.2491, "city": "Mark" },
  "61341": { "lat": 41.3302, "lng": -88.6947, "city": "Marseilles" },
  "61342": { "lat": 41.5443, "lng": -89.1083, "city": "Mendota" },
  "61344": { "lat": 41.4036, "lng": -89.8201, "city": "Mineral" },
  "61345": { "lat": 41.2905, "lng": -89.7944, "city": "Neponset" },
  "61346": { "lat": 41.5122, "lng": -89.7199, "city": "New Bedford" },
  "61348": { "lat": 41.2928, "lng": -89.0553, "city": "Oglesby" },
  "61349": { "lat": 41.5371, "lng": -89.4574, "city": "Ohio" },
  "61350": { "lat": 41.3526, "lng": -88.8416, "city": "Ottawa" },
  "61353": { "lat": 41.6852, "lng": -88.9674, "city": "Paw Paw" },
  "61354": { "lat": 41.333, "lng": -89.1265, "city": "Peru" },
  "61356": { "lat": 41.3629, "lng": -89.427, "city": "Princeton" },
  "61358": { "lat": 40.9844, "lng": -89.0388, "city": "Rutland" },
  "61359": { "lat": 41.3613, "lng": -89.2691, "city": "Seatonville" },
  "61360": { "lat": 41.3152, "lng": -88.61, "city": "Seneca" },
  "61361": { "lat": 41.3949, "lng": -89.7115, "city": "Sheffield" },
  "61362": { "lat": 41.3279, "lng": -89.2042, "city": "Spring Valley" },
  "61363": { "lat": 41.2567, "lng": -89.1778, "city": "Standard" },
  "61364": { "lat": 41.1225, "lng": -88.8307, "city": "Streator" },
  "61367": { "lat": 41.6331, "lng": -89.2354, "city": "Sublette" },
  "61368": { "lat": 41.2891, "lng": -89.508, "city": "Tiskilwa" },
  "61369": { "lat": 41.0046, "lng": -89.1348, "city": "Toluca" },
  "61370": { "lat": 41.2327, "lng": -89.089, "city": "Tonica" },
  "61371": { "lat": 41.4991, "lng": -89.0219, "city": "Triumph" },
  "61372": { "lat": 41.4678, "lng": -89.0831, "city": "Troy Grove" },
  "61373": { "lat": 41.363, "lng": -89.0008, "city": "Utica" },
  "61374": { "lat": 41.55, "lng": -89.3534, "city": "Van Orin" },
  "61375": { "lat": 41.0327, "lng": -89.2483, "city": "Varna" },
  "61376": { "lat": 41.5394, "lng": -89.6092, "city": "Walnut" },
  "61377": { "lat": 41.0548, "lng": -89.0416, "city": "Wenona" },
  "61378": { "lat": 41.7292, "lng": -89.1909, "city": "West Brooklyn" },
  "61379": { "lat": 41.3785, "lng": -89.5744, "city": "Wyanet" },
  "61401": { "lat": 40.9521, "lng": -90.3698, "city": "Galesburg" },
  "61402": { "lat": 40.9478, "lng": -90.3712, "city": "Galesburg" },
  "61410": { "lat": 40.8023, "lng": -90.4009, "city": "Abingdon" },
  "61411": { "lat": 40.3852, "lng": -90.5037, "city": "Adair" },
  "61412": { "lat": 41.0521, "lng": -90.5436, "city": "Alexis" },
  "61413": { "lat": 41.193, "lng": -90.3821, "city": "Alpha" },
  "61414": { "lat": 41.1128, "lng": -90.1598, "city": "Altona" },
  "61415": { "lat": 40.6549, "lng": -90.4461, "city": "Avon" },
  "61416": { "lat": 40.495, "lng": -90.5646, "city": "Bardolph" },
  "61417": { "lat": 40.7799, "lng": -90.5059, "city": "Berwick" },
  "61418": { "lat": 40.8531, "lng": -90.8561, "city": "Biggsville" },
  "61419": { "lat": 41.1977, "lng": -90.1183, "city": "Bishop Hill" },
  "61420": { "lat": 40.5516, "lng": -90.8595, "city": "Blandinsville" },
  "61421": { "lat": 41.1532, "lng": -89.6521, "city": "Bradford" },
  "61422": { "lat": 40.5539, "lng": -90.506, "city": "Bushnell" },
  "61423": { "lat": 40.889, "lng": -90.5001, "city": "Cameron" },
  "61424": { "lat": 41.078, "lng": -89.6332, "city": "Camp Grove" },
  "61425": { "lat": 40.7551, "lng": -91.0564, "city": "Carman" },
  "61426": { "lat": 41.1183, "lng": -89.7071, "city": "Castleton" },
  "61427": { "lat": 40.4995, "lng": -90.1811, "city": "Cuba" },
  "61428": { "lat": 40.9551, "lng": -90.1398, "city": "Dahinda" },
  "61430": { "lat": 40.9402, "lng": -90.3109, "city": "East Galesburg" },
  "61431": { "lat": 40.6047, "lng": -90.2875, "city": "Ellisville" },
  "61432": { "lat": 40.6442, "lng": -90.1653, "city": "Fairview" },
  "61433": { "lat": 40.5603, "lng": -90.1798, "city": "Fiatt" },
  "61434": { "lat": 41.1656, "lng": -90.0481, "city": "Galva" },
  "61435": { "lat": 40.9863, "lng": -90.5491, "city": "Gerlaw" },
  "61436": { "lat": 40.8765, "lng": -90.1747, "city": "Gilson" },
  "61437": { "lat": 40.8377, "lng": -90.9941, "city": "Gladstone" },
  "61438": { "lat": 40.5578, "lng": -90.6735, "city": "Good Hope" },
  "61439": { "lat": 41.0276, "lng": -90.3575, "city": "Henderson" },
  "61440": { "lat": 40.3256, "lng": -90.6105, "city": "Industry" },
  "61441": { "lat": 40.3594, "lng": -90.2967, "city": "Ipava" },
  "61442": { "lat": 41.1043, "lng": -90.9263, "city": "Keithsburg" },
  "61443": { "lat": 41.2411, "lng": -89.9274, "city": "Kewanee" },
  "61447": { "lat": 40.8638, "lng": -90.7457, "city": "Kirkwood" },
  "61448": { "lat": 40.9107, "lng": -90.2871, "city": "Knoxville" },
  "61449": { "lat": 41.1095, "lng": -89.9575, "city": "La Fayette" },
  "61450": { "lat": 40.5846, "lng": -90.9687, "city": "La Harpe" },
  "61451": { "lat": 40.9335, "lng": -89.9349, "city": "Laura" },
  "61452": { "lat": 40.2339, "lng": -90.619, "city": "Littleton" },
  "61453": { "lat": 41.0153, "lng": -90.7364, "city": "Little York" },
  "61454": { "lat": 40.6761, "lng": -91.0391, "city": "Lomax" },
  "61455": { "lat": 40.4617, "lng": -90.6787, "city": "Macomb" },
  "61458": { "lat": 40.7849, "lng": -90.2008, "city": "Maquon" },
  "61459": { "lat": 40.4978, "lng": -90.3885, "city": "Marietta" },
  "61460": { "lat": 40.7618, "lng": -90.857, "city": "Media" },
  "61462": { "lat": 40.9107, "lng": -90.6448, "city": "Monmouth" },
  "61465": { "lat": 41.1987, "lng": -90.4598, "city": "New Windsor" },
  "61466": { "lat": 41.1006, "lng": -90.4736, "city": "North Henderson" },
  "61467": { "lat": 41.0832, "lng": -90.2391, "city": "Oneida" },
  "61468": { "lat": 41.2525, "lng": -90.3876, "city": "Ophiem" },
  "61469": { "lat": 40.9442, "lng": -90.9302, "city": "Oquawka" },
  "61470": { "lat": 40.618, "lng": -90.4727, "city": "Prairie City" },
  "61471": { "lat": 40.6959, "lng": -90.8274, "city": "Raritan" },
  "61472": { "lat": 41.1103, "lng": -90.39, "city": "Rio" },
  "61473": { "lat": 40.7238, "lng": -90.6514, "city": "Roseville" },
  "61474": { "lat": 40.7289, "lng": -90.3798, "city": "Saint Augustine" },
  "61475": { "lat": 40.5832, "lng": -90.7316, "city": "Sciota" },
  "61476": { "lat": 41.0732, "lng": -90.8257, "city": "Seaton" },
  "61477": { "lat": 40.4855, "lng": -90.2856, "city": "Smithfield" },
  "61478": { "lat": 40.7579, "lng": -90.7606, "city": "Smithshire" },
  "61479": { "lat": 40.9872, "lng": -89.652, "city": "Speer" },
  "61480": { "lat": 40.7523, "lng": -90.9257, "city": "Stronghurst" },
  "61482": { "lat": 40.3784, "lng": -90.4239, "city": "Table Grove" },
  "61483": { "lat": 41.1009, "lng": -89.8606, "city": "Toulon" },
  "61484": { "lat": 40.3062, "lng": -90.422, "city": "Vermont" },
  "61485": { "lat": 41.0256, "lng": -90.0933, "city": "Victoria" },
  "61486": { "lat": 41.2024, "lng": -90.5936, "city": "Viola" },
  "61488": { "lat": 41.0224, "lng": -90.2723, "city": "Wataga" },
  "61489": { "lat": 40.9277, "lng": -90.0267, "city": "Williamsfield" },
  "61490": { "lat": 41.1849, "lng": -90.2833, "city": "Woodhull" },
  "61491": { "lat": 41.0599, "lng": -89.7782, "city": "Wyoming" },
  "61501": { "lat": 40.2311, "lng": -90.3443, "city": "Astoria" },
  "61516": { "lat": 40.8306, "lng": -89.1165, "city": "Benson" },
  "61517": { "lat": 40.8407, "lng": -89.897, "city": "Brimfield" },
  "61519": { "lat": 40.4663, "lng": -90.091, "city": "Bryant" },
  "61520": { "lat": 40.5601, "lng": -90.0242, "city": "Canton" },
  "61523": { "lat": 40.9013, "lng": -89.5068, "city": "Chillicothe" },
  "61524": { "lat": 40.4912, "lng": -90.0318, "city": "Dunfermline" },
  "61525": { "lat": 40.8444, "lng": -89.6397, "city": "Dunlap" },
  "61526": { "lat": 40.9454, "lng": -89.5858, "city": "Edelstein" },
  "61528": { "lat": 40.779, "lng": -89.723, "city": "Edwards" },
  "61529": { "lat": 40.7726, "lng": -89.9289, "city": "Elmwood" },
  "61530": { "lat": 40.7152, "lng": -89.2706, "city": "Eureka" },
  "61531": { "lat": 40.6832, "lng": -90.035, "city": "Farmington" },
  "61532": { "lat": 40.3594, "lng": -89.8334, "city": "Forest City" },
  "61533": { "lat": 40.576, "lng": -89.8113, "city": "Glasford" },
  "61534": { "lat": 40.4198, "lng": -89.6549, "city": "Green Valley" },
  "61535": { "lat": 40.5925, "lng": -89.5345, "city": "Groveland" },
  "61536": { "lat": 40.6798, "lng": -89.7952, "city": "Hanna City" },
  "61537": { "lat": 41.1115, "lng": -89.3743, "city": "Henry" },
  "61539": { "lat": 40.5571, "lng": -89.7685, "city": "Kingston Mines" },
  "61540": { "lat": 41.0216, "lng": -89.4008, "city": "Lacon" },
  "61541": { "lat": 40.9823, "lng": -89.2354, "city": "La Rose" },
  "61542": { "lat": 40.383, "lng": -90.1563, "city": "Lewistown" },
  "61543": { "lat": 40.3902, "lng": -90.0026, "city": "Liverpool" },
  "61544": { "lat": 40.695, "lng": -90.2616, "city": "London Mills" },
  "61545": { "lat": 40.8793, "lng": -89.3703, "city": "Lowpoint" },
  "61546": { "lat": 40.416, "lng": -89.7898, "city": "Manito" },
  "61547": { "lat": 40.6117, "lng": -89.7184, "city": "Mapleton" },
  "61548": { "lat": 40.7844, "lng": -89.4309, "city": "Metamora" },
  "61550": { "lat": 40.6148, "lng": -89.4604, "city": "Morton" },
  "61552": { "lat": 40.818, "lng": -89.568, "city": "Mossville" },
  "61553": { "lat": 40.6259, "lng": -90.0323, "city": "Norris" },
  "61554": { "lat": 40.5674, "lng": -89.6243, "city": "Pekin" },
  "61555": { "lat": 40.5607, "lng": -89.6502, "city": "Pekin" },
  "61558": { "lat": 40.5675, "lng": -89.6407, "city": "Pekin" },
  "61559": { "lat": 40.9093, "lng": -89.7723, "city": "Princeville" },
  "61560": { "lat": 41.1949, "lng": -89.4409, "city": "Putnam" },
  "61561": { "lat": 40.7956, "lng": -89.2093, "city": "Roanoke" },
  "61562": { "lat": 40.8743, "lng": -89.5067, "city": "Rome" },
  "61563": { "lat": 40.4912, "lng": -90.0505, "city": "Saint David" },
  "61564": { "lat": 40.4945, "lng": -89.6518, "city": "South Pekin" },
  "61565": { "lat": 41.0134, "lng": -89.4571, "city": "Sparland" },
  "61567": { "lat": 40.3303, "lng": -89.9312, "city": "Topeka" },
  "61568": { "lat": 40.5053, "lng": -89.4833, "city": "Tremont" },
  "61569": { "lat": 40.6795, "lng": -89.9135, "city": "Trivoli" },
  "61570": { "lat": 40.9141, "lng": -89.283, "city": "Washburn" },
  "61571": { "lat": 40.7034, "lng": -89.4194, "city": "Washington" },
  "61572": { "lat": 40.7878, "lng": -90.0265, "city": "Yates City" },
  "61601": { "lat": 40.6931, "lng": -89.5898, "city": "Peoria" },
  "61602": { "lat": 40.6936, "lng": -89.589, "city": "Peoria" },
  "61603": { "lat": 40.7132, "lng": -89.577, "city": "Peoria" },
  "61604": { "lat": 40.7111, "lng": -89.6324, "city": "Peoria" },
  "61605": { "lat": 40.6775, "lng": -89.6263, "city": "Peoria" },
  "61606": { "lat": 40.6989, "lng": -89.6122, "city": "Peoria" },
  "61607": { "lat": 40.6321, "lng": -89.6903, "city": "Peoria" },
  "61610": { "lat": 40.6428, "lng": -89.5988, "city": "Creve Coeur" },
  "61611": { "lat": 40.6731, "lng": -89.5514, "city": "East Peoria" },
  "61612": { "lat": 40.7442, "lng": -89.7184, "city": "Peoria" },
  "61613": { "lat": 40.7425, "lng": -89.6279, "city": "Peoria" },
  "61614": { "lat": 40.7681, "lng": -89.6026, "city": "Peoria" },
  "61615": { "lat": 40.7661, "lng": -89.645, "city": "Peoria" },
  "61616": { "lat": 40.7473, "lng": -89.574, "city": "Peoria Heights" },
  "61625": { "lat": 40.6963, "lng": -89.6166, "city": "Peoria" },
  "61629": { "lat": 40.692, "lng": -89.5887, "city": "Peoria" },
  "61630": { "lat": 40.7442, "lng": -89.7184, "city": "Peoria" },
  "61633": { "lat": 40.7312, "lng": -89.6031, "city": "Peoria" },
  "61634": { "lat": 40.6896, "lng": -89.5926, "city": "Peoria" },
  "61635": { "lat": 40.6661, "lng": -89.5801, "city": "East Peoria" },
  "61636": { "lat": 40.6999, "lng": -89.5951, "city": "Peoria" },
  "61637": { "lat": 40.7025, "lng": -89.5898, "city": "Peoria" },
  "61638": { "lat": 40.7969, "lng": -89.6111, "city": "Peoria" },
  "61639": { "lat": 40.7098, "lng": -89.5636, "city": "Peoria" },
  "61641": { "lat": 40.64, "lng": -89.652, "city": "Peoria" },
  "61643": { "lat": 40.7442, "lng": -89.7184, "city": "Peoria" },
  "61650": { "lat": 40.7442, "lng": -89.7184, "city": "Peoria" },
  "61651": { "lat": 40.7442, "lng": -89.7184, "city": "Peoria" },
  "61652": { "lat": 40.8767, "lng": -89.5091, "city": "Peoria" },
  "61653": { "lat": 40.7442, "lng": -89.7184, "city": "Peoria" },
  "61654": { "lat": 40.7442, "lng": -89.7184, "city": "Peoria" },
  "61655": { "lat": 40.7442, "lng": -89.7184, "city": "Peoria" },
  "61656": { "lat": 40.7442, "lng": -89.7184, "city": "Peoria" },
  "61701": { "lat": 40.4783, "lng": -88.9893, "city": "Bloomington" },
  "61702": { "lat": 40.5192, "lng": -88.8643, "city": "Bloomington" },
  "61704": { "lat": 40.4705, "lng": -88.9433, "city": "Bloomington" },
  "61705": { "lat": 40.44, "lng": -89.067, "city": "Bloomington" },
  "61709": { "lat": 40.4614, "lng": -88.953, "city": "Bloomington" },
  "61710": { "lat": 40.4777, "lng": -88.9542, "city": "Bloomington" },
  "61720": { "lat": 40.5441, "lng": -88.5266, "city": "Anchor" },
  "61721": { "lat": 40.3613, "lng": -89.3231, "city": "Armington" },
  "61722": { "lat": 40.412, "lng": -88.6296, "city": "Arrowsmith" },
  "61723": { "lat": 40.2586, "lng": -89.23, "city": "Atlanta" },
  "61724": { "lat": 40.3401, "lng": -88.5227, "city": "Bellflower" },
  "61725": { "lat": 40.6029, "lng": -89.1098, "city": "Carlock" },
  "61726": { "lat": 40.7446, "lng": -88.7219, "city": "Chenoa" },
  "61727": { "lat": 40.1487, "lng": -88.9627, "city": "Clinton" },
  "61728": { "lat": 40.5704, "lng": -88.62, "city": "Colfax" },
  "61729": { "lat": 40.6208, "lng": -89.1994, "city": "Congerville" },
  "61730": { "lat": 40.536, "lng": -88.735, "city": "Cooksville" },
  "61731": { "lat": 40.603, "lng": -88.4943, "city": "Cropsey" },
  "61732": { "lat": 40.5364, "lng": -89.1885, "city": "Danvers" },
  "61733": { "lat": 40.6224, "lng": -89.3323, "city": "Deer Creek" },
  "61734": { "lat": 40.369, "lng": -89.5321, "city": "Delavan" },
  "61735": { "lat": 40.1848, "lng": -88.7637, "city": "Dewitt" },
  "61736": { "lat": 40.3989, "lng": -88.8686, "city": "Downs" },
  "61737": { "lat": 40.4432, "lng": -88.7371, "city": "Ellsworth" },
  "61738": { "lat": 40.7389, "lng": -89.012, "city": "El Paso" },
  "61739": { "lat": 40.745, "lng": -88.5165, "city": "Fairbury" },
  "61740": { "lat": 40.879, "lng": -88.862, "city": "Flanagan" },
  "61741": { "lat": 40.7513, "lng": -88.4111, "city": "Forrest" },
  "61742": { "lat": 40.6329, "lng": -89.2727, "city": "Goodfield" },
  "61743": { "lat": 40.8757, "lng": -88.7817, "city": "Graymont" },
  "61744": { "lat": 40.7439, "lng": -88.884, "city": "Gridley" },
  "61745": { "lat": 40.3307, "lng": -88.9776, "city": "Heyworth" },
  "61747": { "lat": 40.4273, "lng": -89.4214, "city": "Hopedale" },
  "61748": { "lat": 40.6205, "lng": -88.9759, "city": "Hudson" },
  "61749": { "lat": 40.0967, "lng": -89.0859, "city": "Kenney" },
  "61750": { "lat": 40.1235, "lng": -88.8597, "city": "Lane" },
  "61751": { "lat": 40.2193, "lng": -89.2852, "city": "Lawndale" },
  "61752": { "lat": 40.3468, "lng": -88.7598, "city": "Le Roy" },
  "61753": { "lat": 40.6357, "lng": -88.8062, "city": "Lexington" },
  "61754": { "lat": 40.3282, "lng": -89.1645, "city": "Mc Lean" },
  "61755": { "lat": 40.5396, "lng": -89.3458, "city": "Mackinaw" },
  "61756": { "lat": 40.0342, "lng": -88.9578, "city": "Maroa" },
  "61758": { "lat": 40.5167, "lng": -88.8259, "city": "Merna" },
  "61759": { "lat": 40.4359, "lng": -89.3165, "city": "Minier" },
  "61760": { "lat": 40.8985, "lng": -89.0349, "city": "Minonk" },
  "61761": { "lat": 40.5124, "lng": -88.9883, "city": "Normal" },
  "61764": { "lat": 40.8764, "lng": -88.6328, "city": "Pontiac" },
  "61769": { "lat": 40.8885, "lng": -88.4094, "city": "Saunemin" },
  "61770": { "lat": 40.432, "lng": -88.5247, "city": "Saybrook" },
  "61771": { "lat": 40.7224, "lng": -89.1271, "city": "Secor" },
  "61772": { "lat": 40.4174, "lng": -89.0822, "city": "Shirley" },
  "61773": { "lat": 40.5823, "lng": -88.3815, "city": "Sibley" },
  "61774": { "lat": 40.4376, "lng": -89.2164, "city": "Stanford" },
  "61775": { "lat": 40.6476, "lng": -88.404, "city": "Strawn" },
  "61776": { "lat": 40.5533, "lng": -88.8886, "city": "Towanda" },
  "61777": { "lat": 40.2323, "lng": -88.9673, "city": "Wapella" },
  "61778": { "lat": 40.2437, "lng": -89.1143, "city": "Waynesville" },
  "61790": { "lat": 40.5103, "lng": -88.998, "city": "Normal" },
  "61791": { "lat": 40.5192, "lng": -88.8643, "city": "Bloomington" },
  "61799": { "lat": 40.4885, "lng": -88.9396, "city": "Bloomington" },
  "61801": { "lat": 40.1095, "lng": -88.2036, "city": "Urbana" },
  "61802": { "lat": 40.0746, "lng": -88.1691, "city": "Urbana" },
  "61803": { "lat": 40.1059, "lng": -88.2247, "city": "Urbana" },
  "61810": { "lat": 39.9188, "lng": -87.9312, "city": "Allerton" },
  "61811": { "lat": 40.3007, "lng": -87.608, "city": "Alvin" },
  "61812": { "lat": 40.2175, "lng": -87.8943, "city": "Armstrong" },
  "61813": { "lat": 39.9222, "lng": -88.5688, "city": "Bement" },
  "61814": { "lat": 40.2552, "lng": -87.6138, "city": "Bismarck" },
  "61815": { "lat": 40.1134, "lng": -88.3695, "city": "Bondville" },
  "61816": { "lat": 39.9142, "lng": -87.9948, "city": "Broadlands" },
  "61817": { "lat": 40.0699, "lng": -87.7113, "city": "Catlin" },
  "61818": { "lat": 39.8681, "lng": -88.7256, "city": "Cerro Gordo" },
  "61820": { "lat": 40.111, "lng": -88.2407, "city": "Champaign" },
  "61821": { "lat": 40.1073, "lng": -88.2788, "city": "Champaign" },
  "61822": { "lat": 40.1317, "lng": -88.2854, "city": "Champaign" },
  "61824": { "lat": 40.1164, "lng": -88.2434, "city": "Champaign" },
  "61825": { "lat": 40.1164, "lng": -88.2434, "city": "Champaign" },
  "61826": { "lat": 40.1131, "lng": -88.3613, "city": "Champaign" },
  "61830": { "lat": 39.9972, "lng": -88.6962, "city": "Cisco" },
  "61831": { "lat": 40.2207, "lng": -87.7987, "city": "Collison" },
  "61832": { "lat": 40.137, "lng": -87.6217, "city": "Danville" },
  "61833": { "lat": 40.0964, "lng": -87.644, "city": "Tilton" },
  "61834": { "lat": 40.1602, "lng": -87.6729, "city": "Danville" },
  "61839": { "lat": 40.1107, "lng": -88.6392, "city": "De Land" },
  "61840": { "lat": 40.3131, "lng": -88.277, "city": "Dewey" },
  "61841": { "lat": 40.0373, "lng": -87.8365, "city": "Fairmount" },
  "61842": { "lat": 40.2447, "lng": -88.6634, "city": "Farmer City" },
  "61843": { "lat": 40.2991, "lng": -88.356, "city": "Fisher" },
  "61844": { "lat": 40.1192, "lng": -87.8797, "city": "Fithian" },
  "61845": { "lat": 40.3554, "lng": -88.4202, "city": "Foosland" },
  "61846": { "lat": 39.9792, "lng": -87.6365, "city": "Georgetown" },
  "61847": { "lat": 40.3028, "lng": -88.0317, "city": "Gifford" },
  "61848": { "lat": 40.304, "lng": -87.7007, "city": "Henning" },
  "61849": { "lat": 40.0346, "lng": -87.9627, "city": "Homer" },
  "61850": { "lat": 39.9268, "lng": -87.7388, "city": "Indianola" },
  "61851": { "lat": 39.9502, "lng": -88.4451, "city": "Ivesdale" },
  "61852": { "lat": 39.9012, "lng": -88.0753, "city": "Longview" },
  "61853": { "lat": 40.1964, "lng": -88.3928, "city": "Mahomet" },
  "61854": { "lat": 40.2147, "lng": -88.5179, "city": "Mansfield" },
  "61855": { "lat": 39.9238, "lng": -88.6599, "city": "Milmine" },
  "61856": { "lat": 40.0263, "lng": -88.5686, "city": "Monticello" },
  "61857": { "lat": 40.1165, "lng": -87.8447, "city": "Muncie" },
  "61858": { "lat": 40.1167, "lng": -87.7825, "city": "Oakwood" },
  "61859": { "lat": 40.1401, "lng": -87.9665, "city": "Ogden" },
  "61862": { "lat": 40.3101, "lng": -87.957, "city": "Penfield" },
  "61863": { "lat": 39.9151, "lng": -88.2743, "city": "Pesotum" },
  "61864": { "lat": 40.0052, "lng": -88.1595, "city": "Philo" },
  "61865": { "lat": 40.309, "lng": -87.8232, "city": "Potomac" },
  "61866": { "lat": 40.3107, "lng": -88.1462, "city": "Rantoul" },
  "61870": { "lat": 39.9155, "lng": -87.6346, "city": "Ridge Farm" },
  "61871": { "lat": 40.1924, "lng": -87.9742, "city": "Royal" },
  "61872": { "lat": 39.9613, "lng": -88.3447, "city": "Sadorus" },
  "61873": { "lat": 40.1207, "lng": -88.0472, "city": "Saint Joseph" },
  "61874": { "lat": 40.0654, "lng": -88.2528, "city": "Savoy" },
  "61875": { "lat": 40.107, "lng": -88.4267, "city": "Seymour" },
  "61876": { "lat": 39.911, "lng": -87.8248, "city": "Sidell" },
  "61877": { "lat": 40.0232, "lng": -88.069, "city": "Sidney" },
  "61878": { "lat": 40.2402, "lng": -88.183, "city": "Thomasboro" },
  "61880": { "lat": 39.985, "lng": -88.2596, "city": "Tolono" },
  "61882": { "lat": 40.1177, "lng": -88.7531, "city": "Weldon" },
  "61883": { "lat": 40.0451, "lng": -87.636, "city": "Westville" },
  "61884": { "lat": 40.1009, "lng": -88.5193, "city": "White Heath" },
  "61910": { "lat": 39.687, "lng": -88.3037, "city": "Arcola" },
  "61911": { "lat": 39.7077, "lng": -88.4555, "city": "Arthur" },
  "61912": { "lat": 39.5254, "lng": -88.0341, "city": "Ashmore" },
  "61913": { "lat": 39.8044, "lng": -88.4494, "city": "Atwood" },
  "61914": { "lat": 39.6348, "lng": -88.7543, "city": "Bethany" },
  "61917": { "lat": 39.6923, "lng": -87.9263, "city": "Brocton" },
  "61919": { "lat": 39.8, "lng": -88.1468, "city": "Camargo" },
  "61920": { "lat": 39.4869, "lng": -88.1761, "city": "Charleston" },
  "61924": { "lat": 39.7996, "lng": -87.6556, "city": "Chrisman" },
  "61925": { "lat": 39.7119, "lng": -88.7975, "city": "Dalton City" },
  "61928": { "lat": 39.4796, "lng": -88.5242, "city": "Gays" },
  "61929": { "lat": 39.7946, "lng": -88.5793, "city": "Hammond" },
  "61930": { "lat": 39.7018, "lng": -88.1486, "city": "Hindsboro" },
  "61931": { "lat": 39.6012, "lng": -88.3141, "city": "Humboldt" },
  "61932": { "lat": 39.8009, "lng": -87.8747, "city": "Hume" },
  "61933": { "lat": 39.5525, "lng": -87.9352, "city": "Kansas" },
  "61936": { "lat": 39.7983, "lng": -88.7272, "city": "La Place" },
  "61937": { "lat": 39.7192, "lng": -88.6417, "city": "Lovington" },
  "61938": { "lat": 39.4802, "lng": -88.3762, "city": "Mattoon" },
  "61940": { "lat": 39.8008, "lng": -87.7955, "city": "Metcalf" },
  "61941": { "lat": 39.8009, "lng": -88.0784, "city": "Murdock" },
  "61942": { "lat": 39.7848, "lng": -88.0001, "city": "Newman" },
  "61943": { "lat": 39.6516, "lng": -88.0253, "city": "Oakland" },
  "61944": { "lat": 39.6132, "lng": -87.6976, "city": "Paris" },
  "61949": { "lat": 39.6453, "lng": -87.8617, "city": "Redmon" },
  "61951": { "lat": 39.5934, "lng": -88.6038, "city": "Sullivan" },
  "61953": { "lat": 39.7995, "lng": -88.2816, "city": "Tuscola" },
  "61955": { "lat": 39.5811, "lng": -87.5889, "city": "Vermilion" },
  "61956": { "lat": 39.8687, "lng": -88.1616, "city": "Villa Grove" },
  "61957": { "lat": 39.4302, "lng": -88.5857, "city": "Windsor" },
  "62001": { "lat": 38.8822, "lng": -89.7441, "city": "Alhambra" },
  "62002": { "lat": 38.9087, "lng": -90.1568, "city": "Alton" },
  "62006": { "lat": 39.0725, "lng": -90.6591, "city": "Batchtown" },
  "62009": { "lat": 39.0939, "lng": -89.8031, "city": "Benld" },
  "62010": { "lat": 38.9074, "lng": -90.0344, "city": "Bethalto" },
  "62011": { "lat": 39.1128, "lng": -89.2125, "city": "Bingham" },
  "62012": { "lat": 39.0361, "lng": -90.1443, "city": "Brighton" },
  "62013": { "lat": 38.9495, "lng": -90.5887, "city": "Brussels" },
  "62014": { "lat": 39.0408, "lng": -89.9624, "city": "Bunker Hill" },
  "62015": { "lat": 39.2114, "lng": -89.5305, "city": "Butler" },
  "62016": { "lat": 39.3009, "lng": -90.4092, "city": "Carrollton" },
  "62017": { "lat": 39.0908, "lng": -89.3945, "city": "Coffeen" },
  "62018": { "lat": 38.9124, "lng": -90.0826, "city": "Cottage Hills" },
  "62019": { "lat": 39.0344, "lng": -89.4909, "city": "Donnellson" },
  "62021": { "lat": 38.9832, "lng": -89.9786, "city": "Dorsey" },
  "62022": { "lat": 39.0312, "lng": -90.3011, "city": "Dow" },
  "62023": { "lat": 39.1118, "lng": -89.7855, "city": "Eagarville" },
  "62024": { "lat": 38.8803, "lng": -90.083, "city": "East Alton" },
  "62025": { "lat": 38.805, "lng": -89.9637, "city": "Edwardsville" },
  "62026": { "lat": 38.8114, "lng": -89.9532, "city": "Edwardsville" },
  "62027": { "lat": 39.2836, "lng": -90.5329, "city": "Eldred" },
  "62028": { "lat": 38.9594, "lng": -90.3541, "city": "Elsah" },
  "62030": { "lat": 39.1546, "lng": -90.1642, "city": "Fidelity" },
  "62031": { "lat": 39.1086, "lng": -90.5297, "city": "Fieldon" },
  "62032": { "lat": 39.1039, "lng": -89.2946, "city": "Fillmore" },
  "62033": { "lat": 39.1341, "lng": -89.8442, "city": "Gillespie" },
  "62034": { "lat": 38.7609, "lng": -89.9706, "city": "Glen Carbon" },
  "62035": { "lat": 38.946, "lng": -90.206, "city": "Godfrey" },
  "62036": { "lat": 38.8961, "lng": -90.5602, "city": "Golden Eagle" },
  "62037": { "lat": 39.0021, "lng": -90.4323, "city": "Grafton" },
  "62040": { "lat": 38.7261, "lng": -90.1106, "city": "Granite City" },
  "62044": { "lat": 39.3491, "lng": -90.2089, "city": "Greenfield" },
  "62045": { "lat": 39.2235, "lng": -90.6995, "city": "Hamburg" },
  "62046": { "lat": 38.8901, "lng": -89.8457, "city": "Hamel" },
  "62047": { "lat": 39.1547, "lng": -90.624, "city": "Hardin" },
  "62048": { "lat": 38.8278, "lng": -90.0926, "city": "Hartford" },
  "62049": { "lat": 39.1494, "lng": -89.4881, "city": "Hillsboro" },
  "62050": { "lat": 39.4674, "lng": -90.5128, "city": "Hillview" },
  "62051": { "lat": 39.2089, "lng": -89.4104, "city": "Irving" },
  "62052": { "lat": 39.1213, "lng": -90.3338, "city": "Jerseyville" },
  "62053": { "lat": 39.3064, "lng": -90.6269, "city": "Kampsville" },
  "62054": { "lat": 39.2037, "lng": -90.3719, "city": "Kane" },
  "62056": { "lat": 39.1793, "lng": -89.6499, "city": "Litchfield" },
  "62058": { "lat": 38.969, "lng": -89.7668, "city": "Livingston" },
  "62059": { "lat": 38.44, "lng": -89.9835, "city": "Lovejoy" },
  "62060": { "lat": 38.6811, "lng": -90.1566, "city": "Madison" },
  "62061": { "lat": 38.7793, "lng": -89.7786, "city": "Marine" },
  "62062": { "lat": 38.7138, "lng": -89.9658, "city": "Maryville" },
  "62063": { "lat": 39.1986, "lng": -90.1542, "city": "Medora" },
  "62065": { "lat": 39.2353, "lng": -90.6235, "city": "Michael" },
  "62067": { "lat": 38.9318, "lng": -89.9618, "city": "Moro" },
  "62069": { "lat": 39.0705, "lng": -89.7448, "city": "Mount Olive" },
  "62070": { "lat": 39.2925, "lng": -90.7493, "city": "Mozier" },
  "62071": { "lat": 38.6516, "lng": -90.1639, "city": "National Stock Yards" },
  "62074": { "lat": 38.9676, "lng": -89.7392, "city": "New Douglas" },
  "62075": { "lat": 39.3036, "lng": -89.2853, "city": "Nokomis" },
  "62076": { "lat": 39.3434, "lng": -89.2191, "city": "Ohlman" },
  "62077": { "lat": 39.0317, "lng": -89.5237, "city": "Panama" },
  "62078": { "lat": 39.4806, "lng": -90.4829, "city": "Patterson" },
  "62079": { "lat": 39.1159, "lng": -90.1237, "city": "Piasa" },
  "62080": { "lat": 39.1445, "lng": -89.1087, "city": "Ramsey" },
  "62081": { "lat": 39.2831, "lng": -90.2558, "city": "Rockbridge" },
  "62082": { "lat": 39.4846, "lng": -90.3498, "city": "Roodhouse" },
  "62083": { "lat": 39.3743, "lng": -89.1983, "city": "Rosamond" },
  "62084": { "lat": 38.8482, "lng": -90.0798, "city": "Roxana" },
  "62085": { "lat": 39.0828, "lng": -89.8043, "city": "Sawyerville" },
  "62086": { "lat": 38.9693, "lng": -89.5653, "city": "Sorento" },
  "62087": { "lat": 38.8225, "lng": -90.0583, "city": "South Roxana" },
  "62088": { "lat": 39.0135, "lng": -89.7857, "city": "Staunton" },
  "62089": { "lat": 39.1309, "lng": -89.492, "city": "Taylor Springs" },
  "62090": { "lat": 38.6706, "lng": -90.1689, "city": "Venice" },
  "62091": { "lat": 39.0473, "lng": -89.635, "city": "Walshville" },
  "62092": { "lat": 39.4288, "lng": -90.4019, "city": "White Hall" },
  "62093": { "lat": 39.0695, "lng": -89.8565, "city": "Wilsonville" },
  "62094": { "lat": 39.2469, "lng": -89.3414, "city": "Witt" },
  "62095": { "lat": 38.8643, "lng": -90.0875, "city": "Wood River" },
  "62097": { "lat": 38.9449, "lng": -89.8532, "city": "Worden" },
  "62098": { "lat": 39.3762, "lng": -90.2933, "city": "Wrights" },
  "62201": { "lat": 38.6427, "lng": -90.1387, "city": "East Saint Louis" },
  "62202": { "lat": 38.6163, "lng": -90.1591, "city": "East Saint Louis" },
  "62203": { "lat": 38.5992, "lng": -90.0744, "city": "East Saint Louis" },
  "62204": { "lat": 38.6308, "lng": -90.095, "city": "East Saint Louis" },
  "62205": { "lat": 38.6149, "lng": -90.1275, "city": "East Saint Louis" },
  "62206": { "lat": 38.5514, "lng": -90.1544, "city": "East Saint Louis" },
  "62207": { "lat": 38.587, "lng": -90.1278, "city": "East Saint Louis" },
  "62208": { "lat": 38.596, "lng": -90.0071, "city": "Fairview Heights" },
  "62214": { "lat": 38.3815, "lng": -89.5794, "city": "Addieville" },
  "62215": { "lat": 38.532, "lng": -89.6202, "city": "Albers" },
  "62216": { "lat": 38.6089, "lng": -89.6034, "city": "Aviston" },
  "62217": { "lat": 38.1754, "lng": -89.8414, "city": "Baldwin" },
  "62218": { "lat": 38.5385, "lng": -89.4578, "city": "Bartelso" },
  "62219": { "lat": 38.6058, "lng": -89.4319, "city": "Beckemeyer" },
  "62220": { "lat": 38.5127, "lng": -89.9847, "city": "Belleville" },
  "62221": { "lat": 38.5396, "lng": -89.9583, "city": "Belleville" },
  "62222": { "lat": 38.44, "lng": -89.9835, "city": "Belleville" },
  "62223": { "lat": 38.5456, "lng": -90.0378, "city": "Belleville" },
  "62225": { "lat": 38.5432, "lng": -89.859, "city": "Scott Air Force Base" },
  "62226": { "lat": 38.5352, "lng": -90.0006, "city": "Belleville" },
  "62230": { "lat": 38.6188, "lng": -89.5284, "city": "Breese" },
  "62231": { "lat": 38.6066, "lng": -89.3805, "city": "Carlyle" },
  "62232": { "lat": 38.6345, "lng": -90.0135, "city": "Caseyville" },
  "62233": { "lat": 37.9188, "lng": -89.8218, "city": "Chester" },
  "62234": { "lat": 38.6835, "lng": -89.9853, "city": "Collinsville" },
  "62236": { "lat": 38.4325, "lng": -90.2027, "city": "Columbia" },
  "62237": { "lat": 38.1753, "lng": -89.6479, "city": "Coulterville" },
  "62238": { "lat": 38.0427, "lng": -89.5661, "city": "Cutler" },
  "62239": { "lat": 38.5162, "lng": -90.2104, "city": "Dupo" },
  "62240": { "lat": 38.5349, "lng": -90.2208, "city": "East Carondelet" },
  "62241": { "lat": 38.0054, "lng": -89.9008, "city": "Ellis Grove" },
  "62242": { "lat": 38.0926, "lng": -89.917, "city": "Evansville" },
  "62243": { "lat": 38.408, "lng": -89.9181, "city": "Freeburg" },
  "62244": { "lat": 38.1797, "lng": -90.1974, "city": "Fults" },
  "62245": { "lat": 38.5487, "lng": -89.5413, "city": "Germantown" },
  "62246": { "lat": 38.8933, "lng": -89.4052, "city": "Greenville" },
  "62247": { "lat": 38.9434, "lng": -89.1684, "city": "Hagarstown" },
  "62248": { "lat": 38.3044, "lng": -89.9935, "city": "Hecker" },
  "62249": { "lat": 38.7631, "lng": -89.6789, "city": "Highland" },
  "62250": { "lat": 38.5408, "lng": -89.2661, "city": "Hoffman" },
  "62252": { "lat": 38.6018, "lng": -89.2915, "city": "Huey" },
  "62253": { "lat": 38.7769, "lng": -89.2975, "city": "Keyesport" },
  "62254": { "lat": 38.6053, "lng": -89.7992, "city": "Lebanon" },
  "62255": { "lat": 38.295, "lng": -89.7922, "city": "Lenzburg" },
  "62256": { "lat": 38.3043, "lng": -90.1356, "city": "Maeystown" },
  "62257": { "lat": 38.2455, "lng": -89.7501, "city": "Marissa" },
  "62258": { "lat": 38.4745, "lng": -89.7877, "city": "Mascoutah" },
  "62259": { "lat": 37.9101, "lng": -89.8398, "city": "Menard" },
  "62260": { "lat": 38.4443, "lng": -90.0888, "city": "Millstadt" },
  "62261": { "lat": 38.0507, "lng": -90.0163, "city": "Modoc" },
  "62262": { "lat": 38.9311, "lng": -89.2463, "city": "Mulberry Grove" },
  "62263": { "lat": 38.3352, "lng": -89.3841, "city": "Nashville" },
  "62264": { "lat": 38.316, "lng": -89.8728, "city": "New Athens" },
  "62265": { "lat": 38.5315, "lng": -89.6922, "city": "New Baden" },
  "62266": { "lat": 38.4857, "lng": -89.6816, "city": "New Memphis" },
  "62268": { "lat": 38.2573, "lng": -89.596, "city": "Oakdale" },
  "62269": { "lat": 38.5718, "lng": -89.8957, "city": "O Fallon" },
  "62271": { "lat": 38.4319, "lng": -89.523, "city": "Okawville" },
  "62272": { "lat": 38.0126, "lng": -89.617, "city": "Percy" },
  "62273": { "lat": 38.78, "lng": -89.5981, "city": "Pierron" },
  "62274": { "lat": 38.0903, "lng": -89.3858, "city": "Pinckneyville" },
  "62275": { "lat": 38.7846, "lng": -89.5247, "city": "Pocahontas" },
  "62277": { "lat": 38.0831, "lng": -90.0959, "city": "Prairie Du Rocher" },
  "62278": { "lat": 38.1907, "lng": -89.9884, "city": "Red Bud" },
  "62279": { "lat": 38.1521, "lng": -90.1346, "city": "Renault" },
  "62280": { "lat": 37.8322, "lng": -89.6214, "city": "Rockwood" },
  "62281": { "lat": 38.7059, "lng": -89.7925, "city": "Saint Jacob" },
  "62282": { "lat": 38.3632, "lng": -89.7139, "city": "Saint Libory" },
  "62284": { "lat": 38.8739, "lng": -89.3266, "city": "Smithboro" },
  "62285": { "lat": 38.4231, "lng": -89.9896, "city": "Smithton" },
  "62286": { "lat": 38.1318, "lng": -89.7035, "city": "Sparta" },
  "62288": { "lat": 38.0057, "lng": -89.6665, "city": "Steeleville" },
  "62289": { "lat": 38.5967, "lng": -89.7512, "city": "Summerfield" },
  "62292": { "lat": 38.2122, "lng": -89.6895, "city": "Tilden" },
  "62293": { "lat": 38.6191, "lng": -89.6447, "city": "Trenton" },
  "62294": { "lat": 38.7243, "lng": -89.8708, "city": "Troy" },
  "62295": { "lat": 38.2805, "lng": -90.3122, "city": "Valmeyer" },
  "62297": { "lat": 38.0203, "lng": -89.8297, "city": "Walsh" },
  "62298": { "lat": 38.3223, "lng": -90.1478, "city": "Waterloo" },
  "62301": { "lat": 39.9307, "lng": -91.3763, "city": "Quincy" },
  "62305": { "lat": 39.9601, "lng": -91.3026, "city": "Quincy" },
  "62306": { "lat": 39.9356, "lng": -91.4099, "city": "Quincy" },
  "62311": { "lat": 40.2341, "lng": -90.9554, "city": "Augusta" },
  "62312": { "lat": 39.7047, "lng": -91.0265, "city": "Barry" },
  "62313": { "lat": 40.3283, "lng": -91.197, "city": "Basco" },
  "62314": { "lat": 39.7612, "lng": -90.8832, "city": "Baylis" },
  "62316": { "lat": 40.2341, "lng": -91.0705, "city": "Bowen" },
  "62319": { "lat": 40.1511, "lng": -90.7544, "city": "Camden" },
  "62320": { "lat": 40.0293, "lng": -91.0769, "city": "Camp Point" },
  "62321": { "lat": 40.4129, "lng": -91.1005, "city": "Carthage" },
  "62323": { "lat": 39.8071, "lng": -90.663, "city": "Chambersburg" },
  "62324": { "lat": 40.0133, "lng": -90.9554, "city": "Clayton" },
  "62325": { "lat": 40.0554, "lng": -91.1747, "city": "Coatsburg" },
  "62326": { "lat": 40.4156, "lng": -90.7846, "city": "Colchester" },
  "62329": { "lat": 40.5714, "lng": -91.1682, "city": "Colusa" },
  "62330": { "lat": 40.572, "lng": -91.1255, "city": "Dallas City" },
  "62334": { "lat": 40.395, "lng": -91.2496, "city": "Elvaston" },
  "62336": { "lat": 40.4689, "lng": -91.1704, "city": "Ferris" },
  "62338": { "lat": 39.9925, "lng": -91.2452, "city": "Fowler" },
  "62339": { "lat": 40.1203, "lng": -91.0296, "city": "Golden" },
  "62340": { "lat": 39.7084, "lng": -90.7249, "city": "Griggsville" },
  "62341": { "lat": 40.3964, "lng": -91.339, "city": "Hamilton" },
  "62343": { "lat": 39.7186, "lng": -91.2338, "city": "Hull" },
  "62344": { "lat": 40.1544, "lng": -90.8531, "city": "Huntsville" },
  "62345": { "lat": 39.6953, "lng": -91.1637, "city": "Kinderhook" },
  "62346": { "lat": 40.1572, "lng": -90.9844, "city": "La Prairie" },
  "62347": { "lat": 39.8892, "lng": -91.0869, "city": "Liberty" },
  "62348": { "lat": 40.1775, "lng": -91.3785, "city": "Lima" },
  "62349": { "lat": 40.1532, "lng": -91.213, "city": "Loraine" },
  "62351": { "lat": 40.0857, "lng": -91.2899, "city": "Mendon" },
  "62352": { "lat": 39.5645, "lng": -90.6504, "city": "Milton" },
  "62353": { "lat": 39.9803, "lng": -90.7414, "city": "Mount Sterling" },
  "62354": { "lat": 40.5261, "lng": -91.3318, "city": "Nauvoo" },
  "62355": { "lat": 39.4202, "lng": -90.7692, "city": "Nebo" },
  "62356": { "lat": 39.6342, "lng": -91.0886, "city": "New Canton" },
  "62357": { "lat": 39.6996, "lng": -90.844, "city": "New Salem" },
  "62358": { "lat": 40.5978, "lng": -91.2991, "city": "Niota" },
  "62359": { "lat": 40.0366, "lng": -91.2053, "city": "Paloma" },
  "62360": { "lat": 39.8153, "lng": -91.2627, "city": "Payson" },
  "62361": { "lat": 39.4441, "lng": -90.638, "city": "Pearl" },
  "62362": { "lat": 39.7823, "lng": -90.7471, "city": "Perry" },
  "62363": { "lat": 39.6013, "lng": -90.8073, "city": "Pittsfield" },
  "62365": { "lat": 39.8004, "lng": -91.1436, "city": "Plainville" },
  "62366": { "lat": 39.4467, "lng": -90.877, "city": "Pleasant Hill" },
  "62367": { "lat": 40.3236, "lng": -90.9672, "city": "Plymouth" },
  "62370": { "lat": 39.5328, "lng": -90.9722, "city": "Rockport" },
  "62373": { "lat": 40.2865, "lng": -91.3726, "city": "Sutter" },
  "62374": { "lat": 40.414, "lng": -90.8556, "city": "Tennessee" },
  "62375": { "lat": 40.0117, "lng": -90.8661, "city": "Timewell" },
  "62376": { "lat": 40.0809, "lng": -91.3733, "city": "Ursa" },
  "62378": { "lat": 39.8883, "lng": -90.6741, "city": "Versailles" },
  "62379": { "lat": 40.3544, "lng": -91.4348, "city": "Warsaw" },
  "62380": { "lat": 40.255, "lng": -91.1826, "city": "West Point" },
  "62401": { "lat": 39.1217, "lng": -88.5611, "city": "Effingham" },
  "62410": { "lat": 38.5232, "lng": -87.7219, "city": "Allendale" },
  "62411": { "lat": 39.0634, "lng": -88.7481, "city": "Altamont" },
  "62413": { "lat": 39.1179, "lng": -87.8029, "city": "Annapolis" },
  "62414": { "lat": 39.1835, "lng": -88.8038, "city": "Beecher City" },
  "62417": { "lat": 38.7067, "lng": -87.7657, "city": "Bridgeport" },
  "62418": { "lat": 38.9891, "lng": -88.9494, "city": "Brownstown" },
  "62419": { "lat": 38.6351, "lng": -88.0037, "city": "Calhoun" },
  "62420": { "lat": 39.3017, "lng": -87.9913, "city": "Casey" },
  "62421": { "lat": 38.7429, "lng": -87.9727, "city": "Claremont" },
  "62422": { "lat": 39.2326, "lng": -88.8868, "city": "Cowden" },
  "62423": { "lat": 39.449, "lng": -87.5867, "city": "Dennison" },
  "62424": { "lat": 39.0319, "lng": -88.4074, "city": "Dieterich" },
  "62425": { "lat": 38.8306, "lng": -88.0973, "city": "Dundas" },
  "62426": { "lat": 38.9021, "lng": -88.6645, "city": "Edgewood" },
  "62427": { "lat": 38.9096, "lng": -87.6837, "city": "Flat Rock" },
  "62428": { "lat": 39.274, "lng": -88.1246, "city": "Greenup" },
  "62431": { "lat": 39.2245, "lng": -88.9812, "city": "Herrick" },
  "62432": { "lat": 39.1228, "lng": -88.1397, "city": "Hidalgo" },
  "62433": { "lat": 39.1064, "lng": -87.6695, "city": "Hutsonville" },
  "62434": { "lat": 38.8284, "lng": -88.3204, "city": "Ingraham" },
  "62435": { "lat": 39.3743, "lng": -88.2445, "city": "Janesville" },
  "62436": { "lat": 39.2076, "lng": -88.2474, "city": "Jewett" },
  "62438": { "lat": 39.3134, "lng": -88.8715, "city": "Lakewood" },
  "62439": { "lat": 38.7309, "lng": -87.6784, "city": "Lawrenceville" },
  "62440": { "lat": 39.3958, "lng": -88.253, "city": "Lerna" },
  "62441": { "lat": 39.422, "lng": -87.6923, "city": "Marshall" },
  "62442": { "lat": 39.3174, "lng": -87.8707, "city": "Martinsville" },
  "62443": { "lat": 38.9645, "lng": -88.6234, "city": "Mason" },
  "62444": { "lat": 39.2664, "lng": -88.7337, "city": "Mode" },
  "62445": { "lat": 39.1573, "lng": -88.335, "city": "Montrose" },
  "62446": { "lat": 38.5222, "lng": -88.2185, "city": "Mount Erie" },
  "62447": { "lat": 39.322, "lng": -88.4503, "city": "Neoga" },
  "62448": { "lat": 38.9847, "lng": -88.1704, "city": "Newton" },
  "62449": { "lat": 39.001, "lng": -87.895, "city": "Oblong" },
  "62450": { "lat": 38.7334, "lng": -88.0809, "city": "Olney" },
  "62451": { "lat": 39.0028, "lng": -87.6157, "city": "Palestine" },
  "62452": { "lat": 38.59, "lng": -88.0647, "city": "Parkersburg" },
  "62454": { "lat": 39.007, "lng": -87.7484, "city": "Robinson" },
  "62458": { "lat": 39.0315, "lng": -88.8552, "city": "Saint Elmo" },
  "62459": { "lat": 38.928, "lng": -88.0291, "city": "Sainte Marie" },
  "62460": { "lat": 38.5921, "lng": -87.6487, "city": "Saint Francisville" },
  "62461": { "lat": 39.1881, "lng": -88.6418, "city": "Shumway" },
  "62462": { "lat": 39.2176, "lng": -88.4803, "city": "Sigel" },
  "62463": { "lat": 39.272, "lng": -88.6319, "city": "Stewardson" },
  "62464": { "lat": 38.9898, "lng": -87.8396, "city": "Stoy" },
  "62465": { "lat": 39.3641, "lng": -88.6279, "city": "Strasburg" },
  "62466": { "lat": 38.7171, "lng": -87.8638, "city": "Sumner" },
  "62467": { "lat": 39.132, "lng": -88.4767, "city": "Teutopolis" },
  "62468": { "lat": 39.2772, "lng": -88.2468, "city": "Toledo" },
  "62469": { "lat": 39.3938, "lng": -88.3488, "city": "Trilla" },
  "62471": { "lat": 38.9439, "lng": -89.1041, "city": "Vandalia" },
  "62473": { "lat": 38.9906, "lng": -88.5584, "city": "Watson" },
  "62474": { "lat": 39.4564, "lng": -87.9961, "city": "Westfield" },
  "62475": { "lat": 38.895, "lng": -88.0979, "city": "West Liberty" },
  "62476": { "lat": 38.5209, "lng": -88.0048, "city": "West Salem" },
  "62477": { "lat": 39.2402, "lng": -87.6512, "city": "West Union" },
  "62478": { "lat": 39.1938, "lng": -87.7131, "city": "West York" },
  "62479": { "lat": 39.0182, "lng": -88.3175, "city": "Wheeler" },
  "62480": { "lat": 38.9757, "lng": -88.0172, "city": "Willow Hill" },
  "62481": { "lat": 39.13, "lng": -88.0105, "city": "Yale" },
  "62501": { "lat": 39.934, "lng": -88.8052, "city": "Argenta" },
  "62510": { "lat": 39.5095, "lng": -89.0398, "city": "Assumption" },
  "62512": { "lat": 40.1437, "lng": -89.1948, "city": "Beason" },
  "62513": { "lat": 39.6978, "lng": -89.1136, "city": "Blue Mound" },
  "62514": { "lat": 39.7624, "lng": -89.0507, "city": "Boody" },
  "62515": { "lat": 39.8499, "lng": -89.3879, "city": "Buffalo" },
  "62517": { "lat": 39.5917, "lng": -89.424, "city": "Bulpitt" },
  "62518": { "lat": 40.0582, "lng": -89.19, "city": "Chestnut" },
  "62519": { "lat": 39.9374, "lng": -89.4023, "city": "Cornland" },
  "62520": { "lat": 39.8563, "lng": -89.4603, "city": "Dawson" },
  "62521": { "lat": 39.8395, "lng": -88.9465, "city": "Decatur" },
  "62522": { "lat": 39.8432, "lng": -88.9861, "city": "Decatur" },
  "62523": { "lat": 39.8417, "lng": -88.9534, "city": "Decatur" },
  "62524": { "lat": 39.854, "lng": -88.9815, "city": "Decatur" },
  "62525": { "lat": 39.854, "lng": -88.9815, "city": "Decatur" },
  "62526": { "lat": 39.8583, "lng": -88.9382, "city": "Decatur" },
  "62530": { "lat": 39.5692, "lng": -89.6626, "city": "Divernon" },
  "62531": { "lat": 39.6612, "lng": -89.3779, "city": "Edinburg" },
  "62532": { "lat": 39.78, "lng": -88.9808, "city": "Elwin" },
  "62533": { "lat": 39.4401, "lng": -89.617, "city": "Farmersville" },
  "62534": { "lat": 39.5193, "lng": -88.7468, "city": "Findlay" },
  "62535": { "lat": 39.9248, "lng": -88.9691, "city": "Forsyth" },
  "62536": { "lat": 39.6327, "lng": -89.6581, "city": "Glenarm" },
  "62537": { "lat": 39.8567, "lng": -89.085, "city": "Harristown" },
  "62538": { "lat": 39.3719, "lng": -89.538, "city": "Harvel" },
  "62539": { "lat": 39.8499, "lng": -89.2513, "city": "Illiopolis" },
  "62540": { "lat": 39.5838, "lng": -89.4185, "city": "Kincaid" },
  "62541": { "lat": 39.9706, "lng": -89.3505, "city": "Lake Fork" },
  "62543": { "lat": 39.9711, "lng": -89.1725, "city": "Latham" },
  "62544": { "lat": 39.7041, "lng": -88.988, "city": "Macon" },
  "62545": { "lat": 39.7778, "lng": -89.4064, "city": "Mechanicsburg" },
  "62546": { "lat": 39.4153, "lng": -89.4541, "city": "Morrisonville" },
  "62547": { "lat": 39.769, "lng": -89.2489, "city": "Mount Auburn" },
  "62548": { "lat": 40.0045, "lng": -89.2935, "city": "Mount Pulaski" },
  "62549": { "lat": 39.7705, "lng": -88.8659, "city": "Mt Zion" },
  "62550": { "lat": 39.6248, "lng": -89.019, "city": "Moweaqua" },
  "62551": { "lat": 39.8582, "lng": -89.1701, "city": "Niantic" },
  "62553": { "lat": 39.2884, "lng": -89.0836, "city": "Oconee" },
  "62554": { "lat": 39.9351, "lng": -88.8547, "city": "Oreana" },
  "62555": { "lat": 39.4775, "lng": -89.1951, "city": "Owaneco" },
  "62556": { "lat": 39.4699, "lng": -89.3733, "city": "Palmer" },
  "62557": { "lat": 39.3971, "lng": -89.1048, "city": "Pana" },
  "62558": { "lat": 39.6086, "lng": -89.5678, "city": "Pawnee" },
  "62560": { "lat": 39.3106, "lng": -89.5851, "city": "Raymond" },
  "62561": { "lat": 39.8663, "lng": -89.5087, "city": "Riverton" },
  "62563": { "lat": 39.7182, "lng": -89.5649, "city": "Rochester" },
  "62565": { "lat": 39.458, "lng": -88.8058, "city": "Shelbyville" },
  "62567": { "lat": 39.6405, "lng": -89.1913, "city": "Stonington" },
  "62568": { "lat": 39.5489, "lng": -89.2945, "city": "Taylorville" },
  "62570": { "lat": 39.588, "lng": -89.4495, "city": "Tovey" },
  "62571": { "lat": 39.39, "lng": -88.9597, "city": "Tower Hill" },
  "62572": { "lat": 39.3688, "lng": -89.6545, "city": "Waggoner" },
  "62573": { "lat": 39.9454, "lng": -89.0741, "city": "Warrensburg" },
  "62601": { "lat": 39.7517, "lng": -90.0458, "city": "Alexander" },
  "62610": { "lat": 39.5606, "lng": -90.434, "city": "Alsey" },
  "62611": { "lat": 39.8979, "lng": -90.3636, "city": "Arenzville" },
  "62612": { "lat": 39.9386, "lng": -90.0792, "city": "Ashland" },
  "62613": { "lat": 39.9917, "lng": -89.6684, "city": "Athens" },
  "62615": { "lat": 39.5918, "lng": -89.744, "city": "Auburn" },
  "62617": { "lat": 40.1536, "lng": -90.1661, "city": "Bath" },
  "62618": { "lat": 40.0044, "lng": -90.4229, "city": "Beardstown" },
  "62621": { "lat": 39.7296, "lng": -90.5313, "city": "Bluffs" },
  "62622": { "lat": 39.9796, "lng": -90.3524, "city": "Bluff Springs" },
  "62624": { "lat": 40.1289, "lng": -90.3721, "city": "Browning" },
  "62625": { "lat": 39.9169, "lng": -89.6891, "city": "Cantrall" },
  "62626": { "lat": 39.2885, "lng": -89.8661, "city": "Carlinville" },
  "62627": { "lat": 40.0374, "lng": -90.1163, "city": "Chandlerville" },
  "62628": { "lat": 39.7716, "lng": -90.4113, "city": "Chapin" },
  "62629": { "lat": 39.6737, "lng": -89.7112, "city": "Chatham" },
  "62630": { "lat": 39.2608, "lng": -90.0784, "city": "Chesterfield" },
  "62631": { "lat": 39.823, "lng": -90.3722, "city": "Concord" },
  "62633": { "lat": 40.2279, "lng": -89.8903, "city": "Easton" },
  "62634": { "lat": 40.0132, "lng": -89.452, "city": "Elkhart" },
  "62635": { "lat": 40.2967, "lng": -89.4714, "city": "Emden" },
  "62638": { "lat": 39.6222, "lng": -90.0889, "city": "Franklin" },
  "62639": { "lat": 40.07, "lng": -90.429, "city": "Frederick" },
  "62640": { "lat": 39.3838, "lng": -89.8501, "city": "Girard" },
  "62642": { "lat": 40.1017, "lng": -89.7469, "city": "Greenview" },
  "62643": { "lat": 40.2451, "lng": -89.4519, "city": "Hartsburg" },
  "62644": { "lat": 40.3, "lng": -90.061, "city": "Havana" },
  "62649": { "lat": 39.3752, "lng": -90.0672, "city": "Hettick" },
  "62650": { "lat": 39.7339, "lng": -90.229, "city": "Jacksonville" },
  "62651": { "lat": 39.6983, "lng": -90.2615, "city": "Jacksonville" },
  "62655": { "lat": 40.1587, "lng": -90.0043, "city": "Kilbourne" },
  "62656": { "lat": 40.1451, "lng": -89.3684, "city": "Lincoln" },
  "62659": { "lat": 40.0311, "lng": -89.7867, "city": "Lincoln'S New Salem" },
  "62660": { "lat": 39.8589, "lng": -90.2007, "city": "Literberry" },
  "62661": { "lat": 39.6704, "lng": -89.8588, "city": "Loami" },
  "62662": { "lat": 39.5509, "lng": -89.8459, "city": "Lowder" },
  "62663": { "lat": 39.5405, "lng": -90.3317, "city": "Manchester" },
  "62664": { "lat": 40.2023, "lng": -89.6982, "city": "Mason City" },
  "62665": { "lat": 39.8173, "lng": -90.5339, "city": "Meredosia" },
  "62666": { "lat": 40.0967, "lng": -89.5818, "city": "Middletown" },
  "62667": { "lat": 39.476, "lng": -89.9794, "city": "Modesto" },
  "62668": { "lat": 39.5723, "lng": -90.2379, "city": "Murrayville" },
  "62670": { "lat": 39.7681, "lng": -89.855, "city": "New Berlin" },
  "62671": { "lat": 40.1682, "lng": -89.5604, "city": "New Holland" },
  "62672": { "lat": 39.398, "lng": -89.8045, "city": "Nilwood" },
  "62673": { "lat": 40.0994, "lng": -89.9601, "city": "Oakford" },
  "62674": { "lat": 39.4227, "lng": -90.0311, "city": "Palmyra" },
  "62675": { "lat": 40.0117, "lng": -89.8482, "city": "Petersburg" },
  "62677": { "lat": 39.8331, "lng": -89.8686, "city": "Pleasant Plains" },
  "62681": { "lat": 40.1133, "lng": -90.5432, "city": "Rushville" },
  "62682": { "lat": 40.3011, "lng": -89.6872, "city": "San Jose" },
  "62683": { "lat": 39.4803, "lng": -90.1048, "city": "Scottville" },
  "62684": { "lat": 39.9121, "lng": -89.5877, "city": "Sherman" },
  "62685": { "lat": 39.1952, "lng": -89.9607, "city": "Shipman" },
  "62688": { "lat": 39.9445, "lng": -89.9373, "city": "Tallula" },
  "62689": { "lat": 39.5394, "lng": -89.7621, "city": "Thayer" },
  "62690": { "lat": 39.5064, "lng": -89.7783, "city": "Virden" },
  "62691": { "lat": 39.9512, "lng": -90.2123, "city": "Virginia" },
  "62692": { "lat": 39.587, "lng": -89.9449, "city": "Waverly" },
  "62693": { "lat": 39.9542, "lng": -89.5487, "city": "Williamsville" },
  "62694": { "lat": 39.6266, "lng": -90.4664, "city": "Winchester" },
  "62695": { "lat": 39.6289, "lng": -90.219, "city": "Woodson" },
  "62701": { "lat": 39.8, "lng": -89.6495, "city": "Springfield" },
  "62702": { "lat": 39.8317, "lng": -89.6465, "city": "Springfield" },
  "62703": { "lat": 39.7622, "lng": -89.6275, "city": "Springfield" },
  "62704": { "lat": 39.7725, "lng": -89.6889, "city": "Springfield" },
  "62705": { "lat": 39.8017, "lng": -89.6437, "city": "Springfield" },
  "62706": { "lat": 39.7989, "lng": -89.6534, "city": "Springfield" },
  "62707": { "lat": 39.8544, "lng": -89.6544, "city": "Springfield" },
  "62708": { "lat": 39.8061, "lng": -89.5864, "city": "Springfield" },
  "62711": { "lat": 39.7655, "lng": -89.7293, "city": "Springfield" },
  "62712": { "lat": 39.7533, "lng": -89.58, "city": "Springfield" },
  "62715": { "lat": 39.8017, "lng": -89.6437, "city": "Springfield" },
  "62716": { "lat": 39.8482, "lng": -89.5364, "city": "Springfield" },
  "62719": { "lat": 39.7495, "lng": -89.606, "city": "Springfield" },
  "62722": { "lat": 39.7495, "lng": -89.606, "city": "Springfield" },
  "62723": { "lat": 39.7495, "lng": -89.606, "city": "Springfield" },
  "62726": { "lat": 39.7495, "lng": -89.606, "city": "Springfield" },
  "62736": { "lat": 39.7495, "lng": -89.606, "city": "Springfield" },
  "62739": { "lat": 39.8017, "lng": -89.6437, "city": "Springfield" },
  "62756": { "lat": 39.7495, "lng": -89.606, "city": "Springfield" },
  "62757": { "lat": 39.8017, "lng": -89.6437, "city": "Springfield" },
  "62761": { "lat": 39.8524, "lng": -89.541, "city": "Springfield" },
  "62762": { "lat": 39.7495, "lng": -89.606, "city": "Springfield" },
  "62763": { "lat": 39.7495, "lng": -89.606, "city": "Springfield" },
  "62764": { "lat": 39.7495, "lng": -89.606, "city": "Springfield" },
  "62765": { "lat": 39.8017, "lng": -89.6437, "city": "Springfield" },
  "62766": { "lat": 39.7495, "lng": -89.606, "city": "Springfield" },
  "62767": { "lat": 39.7495, "lng": -89.606, "city": "Springfield" },
  "62769": { "lat": 39.8017, "lng": -89.6437, "city": "Springfield" },
  "62776": { "lat": 39.7495, "lng": -89.606, "city": "Springfield" },
  "62777": { "lat": 39.7495, "lng": -89.606, "city": "Springfield" },
  "62781": { "lat": 39.7495, "lng": -89.606, "city": "Springfield" },
  "62786": { "lat": 39.7495, "lng": -89.606, "city": "Springfield" },
  "62791": { "lat": 39.7495, "lng": -89.606, "city": "Springfield" },
  "62794": { "lat": 39.7495, "lng": -89.606, "city": "Springfield" },
  "62796": { "lat": 39.7495, "lng": -89.606, "city": "Springfield" },
  "62801": { "lat": 38.5241, "lng": -89.1365, "city": "Centralia" },
  "62803": { "lat": 38.4455, "lng": -89.3069, "city": "Hoyleton" },
  "62806": { "lat": 38.374, "lng": -88.0636, "city": "Albion" },
  "62807": { "lat": 38.7231, "lng": -88.9157, "city": "Alma" },
  "62808": { "lat": 38.306, "lng": -89.2311, "city": "Ashley" },
  "62809": { "lat": 38.2845, "lng": -88.3642, "city": "Barnhill" },
  "62810": { "lat": 38.2153, "lng": -88.7558, "city": "Belle Rive" },
  "62811": { "lat": 38.3845, "lng": -87.9081, "city": "Bellmont" },
  "62812": { "lat": 38, "lng": -88.9227, "city": "Benton" },
  "62814": { "lat": 38.3531, "lng": -88.7587, "city": "Bluford" },
  "62815": { "lat": 38.449, "lng": -88.0025, "city": "Bone Gap" },
  "62816": { "lat": 38.198, "lng": -88.9229, "city": "Bonnie" },
  "62817": { "lat": 37.9546, "lng": -88.4678, "city": "Broughton" },
  "62818": { "lat": 38.3764, "lng": -87.9928, "city": "Browns" },
  "62819": { "lat": 37.9764, "lng": -89.0209, "city": "Buckner" },
  "62820": { "lat": 38.2082, "lng": -88.2147, "city": "Burnt Prairie" },
  "62821": { "lat": 38.0808, "lng": -88.167, "city": "Carmi" },
  "62822": { "lat": 37.9849, "lng": -89.0574, "city": "Christopher" },
  "62823": { "lat": 38.5159, "lng": -88.4375, "city": "Cisne" },
  "62824": { "lat": 38.6695, "lng": -88.3516, "city": "Clay City" },
  "62825": { "lat": 37.9946, "lng": -89.0672, "city": "Coello" },
  "62827": { "lat": 38.166, "lng": -88.0595, "city": "Crossville" },
  "62828": { "lat": 38.1975, "lng": -88.6363, "city": "Dahlgren" },
  "62829": { "lat": 37.995, "lng": -88.4917, "city": "Dale" },
  "62830": { "lat": 38.4333, "lng": -88.9657, "city": "Dix" },
  "62831": { "lat": 38.2239, "lng": -89.2123, "city": "Du Bois" },
  "62832": { "lat": 38.0137, "lng": -89.2333, "city": "Du Quoin" },
  "62833": { "lat": 38.365, "lng": -88.1335, "city": "Ellery" },
  "62834": { "lat": 37.9762, "lng": -88.1202, "city": "Emma" },
  "62835": { "lat": 38.0927, "lng": -88.3325, "city": "Enfield" },
  "62836": { "lat": 38.0702, "lng": -88.8504, "city": "Ewing" },
  "62837": { "lat": 38.3782, "lng": -88.3593, "city": "Fairfield" },
  "62838": { "lat": 38.8469, "lng": -88.7614, "city": "Farina" },
  "62839": { "lat": 38.6703, "lng": -88.4919, "city": "Flora" },
  "62840": { "lat": 37.9943, "lng": -88.9417, "city": "Frankfort Heights" },
  "62841": { "lat": 37.8612, "lng": -88.9973, "city": "Freeman Spur" },
  "62842": { "lat": 38.4413, "lng": -88.4144, "city": "Geff" },
  "62843": { "lat": 38.3645, "lng": -88.2075, "city": "Golden Gate" },
  "62844": { "lat": 38.2627, "lng": -88.0035, "city": "Grayville" },
  "62846": { "lat": 38.1527, "lng": -88.8894, "city": "Ina" },
  "62848": { "lat": 38.4366, "lng": -89.1648, "city": "Irvington" },
  "62849": { "lat": 38.6136, "lng": -88.7689, "city": "Iuka" },
  "62850": { "lat": 38.5223, "lng": -88.537, "city": "Johnsonville" },
  "62851": { "lat": 38.3691, "lng": -88.6481, "city": "Keenes" },
  "62852": { "lat": 38.3514, "lng": -87.8661, "city": "Keensburg" },
  "62853": { "lat": 38.5147, "lng": -88.9127, "city": "Kell" },
  "62854": { "lat": 38.7559, "lng": -88.813, "city": "Kinmundy" },
  "62855": { "lat": 38.4034, "lng": -87.8187, "city": "Lancaster" },
  "62856": { "lat": 37.9559, "lng": -88.8403, "city": "Logan" },
  "62858": { "lat": 38.7718, "lng": -88.5065, "city": "Louisville" },
  "62859": { "lat": 38.0939, "lng": -88.5286, "city": "Mc Leansboro" },
  "62860": { "lat": 38.013, "lng": -88.6961, "city": "Macedonia" },
  "62861": { "lat": 38.0356, "lng": -88.0456, "city": "Maunie" },
  "62862": { "lat": 38.2447, "lng": -88.3338, "city": "Mill Shoals" },
  "62863": { "lat": 38.4147, "lng": -87.7911, "city": "Mount Carmel" },
  "62864": { "lat": 38.317, "lng": -88.9105, "city": "Mount Vernon" },
  "62865": { "lat": 37.9687, "lng": -89.1159, "city": "Mulkeytown" },
  "62866": { "lat": 38.1654, "lng": -88.9676, "city": "Nason" },
  "62867": { "lat": 37.8999, "lng": -88.1285, "city": "New Haven" },
  "62868": { "lat": 38.7119, "lng": -88.219, "city": "Noble" },
  "62869": { "lat": 37.9773, "lng": -88.3243, "city": "Norris City" },
  "62870": { "lat": 38.6088, "lng": -89.0552, "city": "Odin" },
  "62871": { "lat": 37.8904, "lng": -88.2865, "city": "Omaha" },
  "62872": { "lat": 38.275, "lng": -88.775, "city": "Opdyke" },
  "62874": { "lat": 37.9182, "lng": -88.9767, "city": "Orient" },
  "62875": { "lat": 38.7549, "lng": -89.0942, "city": "Patoka" },