{
  "06010": { "lat": 41.6718, "lng": -72.9493, "city": "Bristol" },
  "06013": { "lat": 41.7612, "lng": -72.9643, "city": "Burlington" },
  "06016": { "lat": 41.9034, "lng": -72.5545, "city": "Broad Brook" },
  "06019": { "lat": 41.8626, "lng": -72.9084, "city": "Canton" },
  "06023": { "lat": 41.6112, "lng": -72.7785, "city": "East Berlin" },
  "06029": { "lat": 41.8384, "lng": -72.4524, "city": "Ellington" },
  "06032": { "lat": 41.7279, "lng": -72.8315, "city": "Farmington" },
  "06033": { "lat": 41.7070, "lng": -72.5381, "city": "Glastonbury" },
  "06035": { "lat": 41.9473, "lng": -72.8290, "city": "Granby" },
  "06040": { "lat": 41.7607, "lng": -72.5187, "city": "Manchester" },
  "06042": { "lat": 41.7899, "lng": -72.5292, "city": "Manchester" },
  "06043": { "lat": 41.7701, "lng": -72.4391, "city": "Bolton" },
  "06051": { "lat": 41.6612, "lng": -72.7795, "city": "New Britain" },
  "06053": { "lat": 41.6874, "lng": -72.8010, "city": "New Britain" },
  "06057": { "lat": 41.8432, "lng": -73.0008, "city": "New Hartford" },
  "06060": { "lat": 42.0000, "lng": -72.8290, "city": "North Granby" },
  "06062": { "lat": 41.6745, "lng": -72.8582, "city": "Plainville" },
  "06066": { "lat": 41.8368, "lng": -72.4588, "city": "Vernon" },
  "06067": { "lat": 41.6348, "lng": -72.6612, "city": "Rocky Hill" },
  "06070": { "lat": 41.8756, "lng": -72.8121, "city": "Simsbury" },
  "06071": { "lat": 41.9939, "lng": -72.4512, "city": "Somers" },
  "06074": { "lat": 41.8245, "lng": -72.5772, "city": "South Windsor" },
  "06076": { "lat": 41.9884, "lng": -72.3160, "city": "Stafford Springs" },
  "06078": { "lat": 41.9528, "lng": -72.5628, "city": "Suffield" },
  "06082": { "lat": 41.9858, "lng": -72.5931, "city": "Enfield" },
  "06084": { "lat": 41.8804, "lng": -72.3549, "city": "Tolland" },
  "06085": { "lat": 41.8832, "lng": -72.9281, "city": "Unionville" },
  "06088": { "lat": 41.8387, "lng": -72.6144, "city": "East Windsor" },
  "06089": { "lat": 41.8471, "lng": -72.6840, "city": "Weatogue" },
  "06090": { "lat": 41.9564, "lng": -72.8571, "city": "West Granby" },
  "06093": { "lat": 41.8890, "lng": -72.6570, "city": "West Suffield" },
  "06095": { "lat": 41.8704, "lng": -72.6470, "city": "Windsor" },
  "06096": { "lat": 41.9230, "lng": -72.6410, "city": "Windsor Locks" },
  "06098": { "lat": 41.9227, "lng": -73.0630, "city": "Winsted" },
  "06103": { "lat": 41.7658, "lng": -72.6734, "city": "Hartford" },
  "06105": { "lat": 41.7738, "lng": -72.7011, "city": "Hartford" },
  "06106": { "lat": 41.7484, "lng": -72.6946, "city": "Hartford" },
  "06107": { "lat": 41.7359, "lng": -72.7530, "city": "West Hartford" },
  "06108": { "lat": 41.7642, "lng": -72.6199, "city": "East Hartford" },
  "06110": { "lat": 41.7378, "lng": -72.7414, "city": "West Hartford" },
  "06111": { "lat": 41.7001, "lng": -72.7267, "city": "Newington" },
  "06114": { "lat": 41.7377, "lng": -72.6688, "city": "Hartford" },
  "06117": { "lat": 41.7920, "lng": -72.7530, "city": "West Hartford" },
  "06118": { "lat": 41.7366, "lng": -72.6091, "city": "East Hartford" },
  "06119": { "lat": 41.7570, "lng": -72.7268, "city": "West Hartford" },
  "06120": { "lat": 41.7858, "lng": -72.6594, "city": "Hartford" },
  "06226": { "lat": 41.7006, "lng": -72.2067, "city": "Willimantic" },
  "06231": { "lat": 41.5963, "lng": -72.3410, "city": "Amston" },
  "06237": { "lat": 41.7236, "lng": -72.3091, "city": "Columbia" },
  "06239": { "lat": 41.7901, "lng": -71.8795, "city": "Danielson" },
  "06241": { "lat": 41.8684, "lng": -71.8694, "city": "Dayville" },
  "06247": { "lat": 41.7714, "lng": -72.1151, "city": "Hampton" },
  "06248": { "lat": 41.5752, "lng": -72.3980, "city": "Hebron" },
  "06249": { "lat": 41.5500, "lng": -72.2780, "city": "Lebanon" },
  "06250": { "lat": 41.7592, "lng": -72.1600, "city": "Mansfield Center" },
  "06254": { "lat": 41.6233, "lng": -71.9767, "city": "North Windham" },
  "06256": { "lat": 41.7743, "lng": -72.0807, "city": "North Windham" },
  "06259": { "lat": 41.8766, "lng": -71.9710, "city": "Pomfret Center" },
  "06260": { "lat": 41.8936, "lng": -71.8400, "city": "Putnam" },
  "06262": { "lat": 41.9579, "lng": -71.9525, "city": "Quinebaug" },
  "06268": { "lat": 41.8083, "lng": -72.2504, "city": "Storrs" },
  "06269": { "lat": 41.8084, "lng": -72.2495, "city": "Storrs Mansfield" },
  "06277": { "lat": 41.9769, "lng": -71.8761, "city": "Thompson" },
  "06278": { "lat": 41.8859, "lng": -72.1464, "city": "Ashford" },
  "06279": { "lat": 41.8936, "lng": -72.3283, "city": "Willington" },
  "06280": { "lat": 41.6971, "lng": -72.1613, "city": "Windham" },
  "06320": { "lat": 41.3556, "lng": -72.0995, "city": "New London" },
  "06330": { "lat": 41.6916, "lng": -72.0677, "city": "Baltic" },
  "06331": { "lat": 41.6744, "lng": -72.0234, "city": "Canterbury" },
  "06339": { "lat": 41.4443, "lng": -72.1084, "city": "Ledyard" },
  "06340": { "lat": 41.3441, "lng": -72.0749, "city": "Groton" },
  "06350": { "lat": 41.5960, "lng": -72.0760, "city": "Hanover" },
  "06351": { "lat": 41.5734, "lng": -71.9773, "city": "Jewett City" },
  "06355": { "lat": 41.3696, "lng": -72.0011, "city": "Mystic" },
  "06357": { "lat": 41.3196, "lng": -72.3439, "city": "Niantic" },
  "06360": { "lat": 41.5482, "lng": -72.0895, "city": "Norwich" },
  "06365": { "lat": 41.4610, "lng": -71.9661, "city": "Preston" },
  "06370": { "lat": 41.4790, "lng": -72.1203, "city": "Oakdale" },
  "06371": { "lat": 41.3639, "lng": -72.2473, "city": "Old Lyme" },
  "06375": { "lat": 41.4050, "lng": -72.1210, "city": "Quaker Hill" },
  "06378": { "lat": 41.3796, "lng": -71.8564, "city": "Stonington" },
  "06382": { "lat": 41.4826, "lng": -72.0681, "city": "Uncasville" },
  "06385": { "lat": 41.3554, "lng": -72.1527, "city": "Waterford" },
  "06401": { "lat": 41.3448, "lng": -73.0785, "city": "Ansonia" },
  "06405": { "lat": 41.2782, "lng": -72.7998, "city": "Branford" },
  "06410": { "lat": 41.4990, "lng": -72.9007, "city": "Cheshire" },
  "06413": { "lat": 41.2801, "lng": -72.5281, "city": "Clinton" },
  "06415": { "lat": 41.4518, "lng": -72.5628, "city": "Colchester" },
  "06416": { "lat": 41.6162, "lng": -72.6048, "city": "Cromwell" },
  "06417": { "lat": 41.3655, "lng": -72.5246, "city": "Deep River" },
  "06418": { "lat": 41.3232, "lng": -73.0563, "city": "Derby" },
  "06420": { "lat": 41.4442, "lng": -72.4034, "city": "Salem" },
  "06422": { "lat": 41.4543, "lng": -72.6878, "city": "Durham" },
  "06423": { "lat": 41.4487, "lng": -72.4979, "city": "East Haddam" },
  "06424": { "lat": 41.5368, "lng": -72.5358, "city": "East Hampton" },
  "06437": { "lat": 41.3351, "lng": -72.7036, "city": "Guilford" },
  "06438": { "lat": 41.4503, "lng": -72.5051, "city": "Haddam" },
  "06441": { "lat": 41.4735, "lng": -72.5805, "city": "Higganum" },
  "06443": { "lat": 41.3396, "lng": -72.7751, "city": "Madison" },
  "06447": { "lat": 41.6346, "lng": -72.4530, "city": "Marlborough" },
  "06450": { "lat": 41.5382, "lng": -72.8070, "city": "Meriden" },
  "06451": { "lat": 41.5536, "lng": -72.8311, "city": "Meriden" },
  "06457": { "lat": 41.5587, "lng": -72.6647, "city": "Middletown" },
  "06460": { "lat": 41.2224, "lng": -73.0637, "city": "Milford" },
  "06461": { "lat": 41.2232, "lng": -73.0545, "city": "Milford" },
  "06468": { "lat": 41.2398, "lng": -73.2072, "city": "Monroe" },
  "06469": { "lat": 41.5148, "lng": -72.5376, "city": "Moodus" },
  "06470": { "lat": 41.3920, "lng": -73.3097, "city": "Newtown" },
  "06471": { "lat": 41.3800, "lng": -72.7822, "city": "North Branford" },
  "06473": { "lat": 41.3907, "lng": -72.8600, "city": "North Haven" },
  "06475": { "lat": 41.2893, "lng": -72.3776, "city": "Old Saybrook" },
  "06477": { "lat": 41.2783, "lng": -72.9970, "city": "Orange" },
  "06478": { "lat": 41.3601, "lng": -73.1310, "city": "Oxford" },
  "06480": { "lat": 41.5876, "lng": -72.6396, "city": "Portland" },
  "06482": { "lat": 41.4186, "lng": -73.2807, "city": "Sandy Hook" },
  "06483": { "lat": 41.3632, "lng": -73.1371, "city": "Seymour" },
  "06484": { "lat": 41.2427, "lng": -73.1327, "city": "Shelton" },
  "06488": { "lat": 41.4395, "lng": -73.2400, "city": "Southbury" },
  "06492": { "lat": 41.4523, "lng": -72.8235, "city": "Wallingford" },
  "06498": { "lat": 41.2963, "lng": -72.4643, "city": "Westbrook" },
  "06510": { "lat": 41.3083, "lng": -72.9268, "city": "New Haven" },
  "06511": { "lat": 41.3100, "lng": -72.9246, "city": "New Haven" },
  "06512": { "lat": 41.2803, "lng": -72.8680, "city": "East Haven" },
  "06513": { "lat": 41.3296, "lng": -72.8932, "city": "New Haven" },
  "06515": { "lat": 41.3279, "lng": -72.9625, "city": "New Haven" },
  "06516": { "lat": 41.2712, "lng": -72.9470, "city": "West Haven" },
  "06517": { "lat": 41.3439, "lng": -72.9105, "city": "Hamden" },
  "06518": { "lat": 41.3925, "lng": -72.9230, "city": "Hamden" },
  "06519": { "lat": 41.2915, "lng": -72.9395, "city": "New Haven" },
  "06524": { "lat": 41.4190, "lng": -72.9932, "city": "Bethany" },
  "06525": { "lat": 41.3583, "lng": -73.0144, "city": "Woodbridge" },
  "06604": { "lat": 41.1792, "lng": -73.1862, "city": "Bridgeport" },
  "06605": { "lat": 41.1603, "lng": -73.2157, "city": "Bridgeport" },
  "06606": { "lat": 41.2076, "lng": -73.2117, "city": "Bridgeport" },
  "06607": { "lat": 41.1690, "lng": -73.1715, "city": "Bridgeport" },
  "06608": { "lat": 41.1910, "lng": -73.1735, "city": "Bridgeport" },
  "06610": { "lat": 41.2095, "lng": -73.1590, "city": "Bridgeport" },
  "06611": { "lat": 41.2412, "lng": -73.2006, "city": "Trumbull" },
  "06612": { "lat": 41.2262, "lng": -73.2728, "city": "Easton" },
  "06614": { "lat": 41.1726, "lng": -73.1375, "city": "Stratford" },
  "06615": { "lat": 41.1947, "lng": -73.1319, "city": "Stratford" },
  "06702": { "lat": 41.5582, "lng": -73.0364, "city": "Waterbury" },
  "06704": { "lat": 41.5778, "lng": -73.0339, "city": "Waterbury" },
  "06705": { "lat": 41.5485, "lng": -72.9960, "city": "Waterbury" },
  "06706": { "lat": 41.5363, "lng": -73.0300, "city": "Waterbury" },
  "06708": { "lat": 41.5590, "lng": -73.0609, "city": "Waterbury" },
  "06710": { "lat": 41.5762, "lng": -73.0510, "city": "Waterbury" },
  "06712": { "lat": 41.5072, "lng": -72.9585, "city": "Prospect" },
  "06716": { "lat": 41.5906, "lng": -72.9718, "city": "Wolcott" },
  "06750": { "lat": 41.7490, "lng": -73.2380, "city": "Bantam" },
  "06751": { "lat": 41.6550, "lng": -73.2370, "city": "Bethlehem" },
  "06752": { "lat": 41.6450, "lng": -73.3040, "city": "Bridgewater" },
  "06755": { "lat": 41.7965, "lng": -73.3715, "city": "Gaylordsville" },
  "06757": { "lat": 41.7605, "lng": -73.2520, "city": "Kent" },
  "06758": { "lat": 41.7355, "lng": -73.1300, "city": "Lakeville" },
  "06759": { "lat": 41.7460, "lng": -73.2260, "city": "Litchfield" },
  "06762": { "lat": 41.4899, "lng": -73.0539, "city": "Middlebury" },
  "06770": { "lat": 41.4889, "lng": -73.0510, "city": "Naugatuck" },
  "06776": { "lat": 41.5777, "lng": -73.4082, "city": "New Milford" },
  "06779": { "lat": 41.6440, "lng": -73.1130, "city": "Oakville" },
  "06782": { "lat": 41.6115, "lng": -73.0800, "city": "Plymouth" },
  "06786": { "lat": 41.6600, "lng": -73.0350, "city": "Terryville" },
  "06787": { "lat": 41.6717, "lng": -73.0524, "city": "Thomaston" },
  "06790": { "lat": 41.8008, "lng": -73.1212, "city": "Torrington" },
  "06791": { "lat": 41.7040, "lng": -73.0864, "city": "Harwinton" },
  "06795": { "lat": 41.6060, "lng": -73.1320, "city": "Watertown" },
  "06798": { "lat": 41.5870, "lng": -73.2050, "city": "Woodbury" },
  "06810": { "lat": 41.3987, "lng": -73.4540, "city": "Danbury" },
  "06811": { "lat": 41.4260, "lng": -73.4930, "city": "Danbury" },
  "06812": { "lat": 41.4620, "lng": -73.4823, "city": "New Fairfield" },
  "06820": { "lat": 41.0760, "lng": -73.4760, "city": "Darien" },
  "06824": { "lat": 41.1780, "lng": -73.2580, "city": "Fairfield" },
  "06825": { "lat": 41.2050, "lng": -73.2380, "city": "Fairfield" },
  "06830": { "lat": 41.0427, "lng": -73.6270, "city": "Greenwich" },
  "06831": { "lat": 41.0800, "lng": -73.6400, "city": "Greenwich" },
  "06840": { "lat": 41.1490, "lng": -73.4970, "city": "New Canaan" },
  "06850": { "lat": 41.1178, "lng": -73.4080, "city": "Norwalk" },
  "06851": { "lat": 41.1176, "lng": -73.4224, "city": "Norwalk" },
  "06854": { "lat": 41.0852, "lng": -73.4193, "city": "Norwalk" },
  "06855": { "lat": 41.0840, "lng": -73.4050, "city": "Norwalk" },
  "06856": { "lat": 41.0930, "lng": -73.4210, "city": "Norwalk" },
  "06870": { "lat": 41.0590, "lng": -73.5690, "city": "Old Greenwich" },
  "06877": { "lat": 41.2814, "lng": -73.4979, "city": "Ridgefield" },
  "06878": { "lat": 41.0440, "lng": -73.5620, "city": "Riverside" },
  "06880": { "lat": 41.1415, "lng": -73.3579, "city": "Westport" },
  "06883": { "lat": 41.2250, "lng": -73.3000, "city": "Weston" },
  "06890": { "lat": 41.1420, "lng": -73.2630, "city": "Southport" },
  "06896": { "lat": 41.2430, "lng": -73.3790, "city": "Redding" },
  "06897": { "lat": 41.2080, "lng": -73.3690, "city": "Wilton" },
  "06901": { "lat": 41.0534, "lng": -73.5387, "city": "Stamford" },
  "06902": { "lat": 41.0593, "lng": -73.5500, "city": "Stamford" },
  "06903": { "lat": 41.1210, "lng": -73.5700, "city": "Stamford" },
  "06905": { "lat": 41.0800, "lng": -73.5490, "city": "Stamford" },
  "06906": { "lat": 41.0694, "lng": -73.5234, "city": "Stamford" },
  "06907": { "lat": 41.0950, "lng": -73.5600, "city": "Stamford" }
}
